,City,Population,Age,Average Income,Percent of Men in City,Percent of Women in City,Per Capita Income,Median House Value,Racial Breakdown,County,Higher Degree,H.S Diploma,No H.S Diploma,ZipCode,Lat,Long
0,Aaronsburg,613,52.2,60710,53.5,46.5,26139,170914," [(['White alone'], ['606']), (['Hispanic'], ['3']), (['Two or more races'], ['2']), (['Black alone'], ['1']), (['Native Hawaiian and Other Pacific Islander alone</br>], ['1'])]",Centre-County,50.01013,43.290219,6.6996509999999985,16820,40.86,-77.39
1,Bellefonte,6227,42.0,56571,48.8,51.2,31247,189215," [(['White alone'], ['5,959']), (['Black alone'], ['146']), (['Hispanic'], ['51']), (['American Indian alone'], ['34']), (['Asian alone'], ['16']), (['Two or more races'], ['19'])] ",Centre-County,50.01013,43.290219,6.6996509999999985,16823,40.91,-77.76
2,Blanchard,740,34.8,48846,48.3,51.7,30640,135294," [(['White alone'], ['722']), (['American Indian alone'], ['8']), (['Two or more races'], ['5']), (['Hispanic'], ['3']), (['Asian alone'], ['2'])] ",Centre-County,50.01013,43.290219,6.6996509999999985,16826,41.04,-77.7
3,Boalsburg,3722,44.6,108712,51.8,48.2,43686,266992," [(['White alone'], ['3,443']), (['Black alone'], ['77']), (['Asian alone'], ['74']), (['Two or more races'], ['62']), (['Hispanic'], ['59']), (['Other race alone'], ['5']), (['American Indian alone'], ['2'])] ",Centre-County,50.01013,43.290219,6.6996509999999985,16827,40.77,-77.79
4,Centre Hall,1238,43.1,63807,49.2,50.8,29473,200108," [(['White alone'], ['1,248']), (['Hispanic'], ['7']), (['Two or more races'], ['5']), (['Asian alone'], ['4']), (['Black alone'], ['1'])] ",Centre-County,50.01013,43.290219,6.6996509999999985,16828,40.84,-77.68
5,Clarence,626,46.6,55731,52.4,47.6,27037,141176," [(['White alone'], ['622']), (['American Indian alone'], ['2']), (['Hispanic'], ['2'])] ",Centre-County,50.01013,43.290219,6.6996509999999985,16829,41.08,-77.87
6,Coburn,236,31.9,67538,50.0,50.0,23545,134204," [(['White alone'], ['228']), (['Hispanic'], ['4']), (['Black alone'], ['2']), (['Two or more races'], ['2'])] ",Centre-County,50.01013,43.290219,6.6996509999999985,16832,40.85,-77.49
7,Howard,718,44.7,55523,50.3,49.7,27453,162527," [(['White alone'], ['695']), (['Hispanic'], ['10']), (['Two or more races'], ['8']), (['Other race alone'], ['3']), (['Black alone'], ['2']), (['Asian alone'], ['2'])] ",Centre-County,50.01013,43.290219,6.6996509999999985,16841,41.01,-77.65
8,Lemont,2270,45.9,98769,49.5,50.5,49294,249454," [(['White alone'], ['2,119']), (['Asian alone'], ['44']), (['Black alone'], ['39']), (['Two or more races'], ['31']), (['Hispanic'], ['30']), (['American Indian alone'], ['5']), (['Native Hawaiian and Other Pacific Islander alone</br>], ['1']), (['Other race alone'], ['1'])]",Centre-County,50.01013,43.290219,6.6996509999999985,16851,40.78,-77.9
9,Milesburg,1095,34.3,50180,46.9,53.1,26728,155446," [(['White alone'], ['1,106']), (['Black alone'], ['5']), (['Asian alone'], ['5']), (['Hispanic'], ['3']), (['Two or more races'], ['2']), (['American Indian alone'], ['1']), (['Other race alone'], ['1'])] ",Centre-County,50.01013,43.290219,6.6996509999999985,16853,40.94,-77.79
10,Millheim,886,41.5,69671,53.9,46.1,28003,157080," [(['White alone'], ['886']), (['Two or more races'], ['14']), (['Hispanic'], ['2']), (['Black alone'], ['1']), (['American Indian alone'], ['1'])] ",Centre-County,50.01013,43.290219,6.6996509999999985,16854,40.89,-77.47
11,Mingoville,503,39.2,60266,58.4,41.6,31158,224400," [(['White alone'], ['498']), (['Hispanic'], ['3']), (['Asian alone'], ['1']), (['Two or more races'], ['1'])] ",Centre-County,50.01013,43.290219,6.6996509999999985,16856,40.93,-77.74
12,Moshannon,281,49.5,60266,49.6,50.4,31158,224400," [(['White alone'], ['280']), (['Asian alone'], ['1'])] ",Centre-County,50.01013,43.290219,6.6996509999999985,16859,41.02,-78.04
13,Philipsburg,2707,44.9,40309,46.7,53.3,26753,106971," [(['White alone'], ['2,689']), (['Two or more races'], ['27']), (['Asian alone'], ['20']), (['Hispanic'], ['18']), (['Black alone'], ['9']), (['American Indian alone'], ['6']), (['Other race alone'], ['1'])] ",Centre-County,50.01013,43.290219,6.6996509999999985,16866,40.89,-78.21
14,Pine Grove Mills,1502,51.8,81063,44.2,55.8,37191,225925," [(['White alone'], ['1,388']), (['Hispanic'], ['32']), (['Asian alone'], ['30']), (['Black alone'], ['26']), (['Two or more races'], ['23']), (['American Indian alone'], ['2']), (['Other race alone'], ['1'])] ",Centre-County,50.01013,43.290219,6.6996509999999985,16868,40.73,-77.87
15,Port Matilda,596,39.0,56769,46.0,54.0,29185,108170," [(['White alone'], ['591']), (['Hispanic'], ['7']), (['Two or more races'], ['5']), (['Black alone'], ['1']), (['American Indian alone'], ['1']), (['Asian alone'], ['1'])] ",Centre-County,50.01013,43.290219,6.6996509999999985,16870,40.79,-78.05
16,Rebersburg,494,36.4,50334,46.0,54.0,19560,140196," [(['White alone'], ['483']), (['Two or more races'], ['5']), (['Asian alone'], ['3']), (['Black alone'], ['2']), (['American Indian alone'], ['1'])] ",Centre-County,50.01013,43.290219,6.6996509999999985,16872,40.94,-77.49
17,Sandy Ridge,407,43.3,120587,35.8,64.2,28824,95207," [(['White alone'], ['405']), (['Hispanic'], ['2'])] ",Centre-County,50.01013,43.290219,6.6996509999999985,16677,40.79,-78.21
18,Snow Shoe,774,38.9,64154,49.0,51.0,26412,127777," [(['White alone'], ['761']), (['Two or more races'], ['2']), (['Asian alone'], ['1']), (['Hispanic'], ['1'])] ",Centre-County,50.01013,43.290219,6.6996509999999985,16874,41.02,-77.95
19,Spring Mills,268,34.4,55384,53.9,46.1,27452,117756," [(['White alone'], ['266']), (['Two or more races'], ['1']), (['Hispanic'], ['1'])] ",Centre-County,50.01013,43.290219,6.6996509999999985,16875,40.86,-77.57
20,State College,42100,22.2,35023,54.3,45.7,19736,300326," [(['White alone'], ['32,863']), (['Asian alone'], ['4,724']), (['Hispanic'], ['1,887']), (['Black alone'], ['1,642']), (['Two or more races'], ['909']), (['Other race alone'], ['67']), (['American Indian alone'], ['55']), (['Native Hawaiian and Other Pacific Islander alone</br>], ['35'])]",Centre-County,50.01013,43.290219,6.6996509999999985,16801,40.79,-77.85
21,Unionville,281,39.5,52615,44.7,55.3,26946,136165," [(['White alone'], ['284']), (['Asian alone'], ['2']), (['Two or more races'], ['2']), (['Hispanic'], ['2']), (['Black alone'], ['1'])] ",Centre-County,50.01013,43.290219,6.6996509999999985,19375,39.89,-75.73
22,Abbottstown,1013,36.9,56524,50.1,49.9,22680,152520," [(['White alone'], ['894']), (['Hispanic'], ['95']), (['Asian alone'], ['10']), (['Black alone'], ['7']), (['Two or more races'], ['5'])] ",Adams-County,30.017963,57.774289,12.207748,17301,39.88,-76.98
23,Arendtsville,954,34.1,56018,48.9,51.1,23856,184065," [(['White alone'], ['742']), (['Hispanic'], ['156']), (['Black alone'], ['27']), (['Two or more races'], ['17']), (['American Indian alone'], ['5']), (['Asian alone'], ['5'])] ",Adams-County,30.017963,57.774289,12.207748,17303,39.92,-77.3
24,Aspers,350,36.9,59300,56.2,43.8,28404,206900," [(['White alone'], ['257']), (['Hispanic'], ['89']), (['Two or more races'], ['2']), (['Black alone'], ['1']), (['Other race alone'], ['1'])] ",Adams-County,30.017963,57.774289,12.207748,17304,39.97,-77.23
25,Bendersville,641,34.0,55260,47.6,52.4,20723,177479," [(['White alone'], ['486']), (['Hispanic'], ['135']), (['Two or more races'], ['10']), (['American Indian alone'], ['4']), (['Black alone'], ['3']), (['Asian alone'], ['3'])] ",Adams-County,30.017963,57.774289,12.207748,17306,39.98,-77.24
26,Biglerville,1202,36.3,48477,49.5,50.5,25095,180453," [(['White alone'], ['953']), (['Hispanic'], ['229']), (['Black alone'], ['8']), (['Two or more races'], ['5']), (['Asian alone'], ['4']), (['American Indian alone'], ['1'])] ",Adams-County,30.017963,57.774289,12.207748,17307,39.93,-77.24
27,Cashtown,459,47.2,59300,44.6,55.4,28404,206900," [(['White alone'], ['428']), (['Hispanic'], ['27']), (['Two or more races'], ['2']), (['Black alone'], ['1']), (['American Indian alone'], ['1'])] ",Adams-County,30.017963,57.774289,12.207748,17310,39.88,-77.34
28,East Berlin,1524,40.6,55376,42.1,57.9,25412,187145," [(['White alone'], ['1,477']), (['Two or more races'], ['26']), (['Black alone'], ['19']), (['Asian alone'], ['10']), (['Hispanic'], ['10']), (['American Indian alone'], ['5'])] ",Adams-County,30.017963,57.774289,12.207748,17316,39.93,-76.97
29,Fairfield,506,52.8,50573,43.6,56.4,26569,191499," [(['White alone'], ['479']), (['Black alone'], ['12']), (['Hispanic'], ['12']), (['Two or more races'], ['3']), (['Asian alone'], ['1'])] ",Adams-County,30.017963,57.774289,12.207748,17320,39.78,-77.36
30,Gettysburg,7633,23.5,37843,47.9,52.1,17877,232709," [(['White alone'], ['6,066']), (['Hispanic'], ['834']), (['Black alone'], ['411']), (['Asian alone'], ['142']), (['Two or more races'], ['143']), (['American Indian alone'], ['13']), (['Other race alone'], ['11'])] ",Adams-County,30.017963,57.774289,12.207748,17325,39.83,-77.23
31,Littlestown,4448,39.0,53171,45.1,54.9,25985,178648," [(['White alone'], ['4,205']), (['Hispanic'], ['110']), (['Two or more races'], ['58']), (['Black alone'], ['36']), (['Asian alone'], ['18']), (['American Indian alone'], ['4']), (['Other race alone'], ['2']), (['Native Hawaiian and Other Pacific Islander alone</br>], ['1'])]",Adams-County,30.017963,57.774289,12.207748,17340,39.74,-77.08
32,Midway,2125,50.8,44203,54.9,45.1,25817,164840," [(['White alone'], ['2,022']), (['Hispanic'], ['71']), (['Two or more races'], ['20']), (['Black alone'], ['5']), (['Asian alone'], ['4']), (['American Indian alone'], ['2']), (['Other race alone'], ['1'])] ",Adams-County,30.017963,57.774289,12.207748,15060,40.36,-80.29
33,New Oxford,1786,35.6,38162,50.1,49.9,18845,163459," [(['White alone'], ['1,490']), (['Hispanic'], ['668']), (['Two or more races'], ['67']), (['Black alone'], ['26']), (['Asian alone'], ['28']), (['American Indian alone'], ['9'])] ",Adams-County,30.017963,57.774289,12.207748,17350,39.86,-77.05
34,York Springs,834,31.9,45884,52.5,47.5,18146,131171," [(['White alone'], ['435']), (['Hispanic'], ['384']), (['Two or more races'], ['6']), (['Black alone'], ['4']), (['American Indian alone'], ['2']), (['Asian alone'], ['2'])] ",Adams-County,30.017963,57.774289,12.207748,17372,40.0,-77.11
35,Ackermanville,610,35.5,66438,54.6,45.4,31852,218000," [(['White alone'], ['590']), (['Hispanic'], ['15']), (['Black alone'], ['3']), (['American Indian alone'], ['1']), (['Asian alone'], ['1'])] ",Northampton-County,36.945136,53.478113,9.576751,18010,40.84,-75.17
36,Bangor,5233,34.9,45128,52.4,47.6,20697,157019," [(['White alone'], ['4,855']), (['Hispanic'], ['262']), (['Two or more races'], ['77']), (['Black alone'], ['61']), (['Asian alone'], ['9']), (['American Indian alone'], ['5']), (['Native Hawaiian and Other Pacific Islander alone</br>], ['2']), (['Other race alone'], ['2'])]",Northampton-County,36.945136,53.478113,9.576751,18013,40.86,-75.2
37,Bath,2680,34.6,47355,46.9,53.1,25062,162477," [(['White alone'], ['2,394']), (['Hispanic'], ['177']), (['Black alone'], ['58']), (['Two or more races'], ['34']), (['Asian alone'], ['26']), (['American Indian alone'], ['4'])] ",Northampton-County,36.945136,53.478113,9.576751,18014,40.72,-75.39
38,Bethlehem,76427,35.9,52588,49.1,50.9,26096,167700," [(['White alone'], ['45,462']), (['Hispanic'], ['22,468']), (['Black alone'], ['4,598']), (['Asian alone'], ['2,142']), (['Two or more races'], ['1,764']), (['Other race alone'], ['70']), (['American Indian alone'], ['63'])] ",Northampton-County,36.945136,53.478113,9.576751,18015,40.62,-75.36
39,Cherryville,1580,51.9,66438,53.8,46.2,31852,218000," [(['White alone'], ['1,486']), (['Hispanic'], ['49']), (['Asian alone'], ['24']), (['Black alone'], ['15']), (['Two or more races'], ['6'])] ",Northampton-County,36.945136,53.478113,9.576751,18035,40.73,-75.55
40,Easton,27052,33.7,48025,49.5,50.5,22522,133613," [(['White alone'], ['14,772']), (['Hispanic'], ['6,684']), (['Black alone'], ['3,767']), (['Two or more races'], ['1,310']), (['Asian alone'], ['909']), (['Other race alone'], ['61']), (['American Indian alone'], ['18']), (['Native Hawaiian and Other Pacific Islander alone</br>], ['11'])]",Northampton-County,36.945136,53.478113,9.576751,18040,40.68,-75.22
41,Hellertown,5858,40.3,63425,49.8,50.2,27479,186722," [(['White alone'], ['5,460']), (['Hispanic'], ['266']), (['Black alone'], ['66']), (['Two or more races'], ['58']), (['Asian alone'], ['47']), (['American Indian alone'], ['1'])] ",Northampton-County,36.945136,53.478113,9.576751,18055,40.58,-75.33
42,Martins Creek,631,54.0,66438,51.8,48.2,31852,218000," [(['White alone'], ['611']), (['Two or more races'], ['8']), (['Hispanic'], ['7']), (['Black alone'], ['3']), (['Asian alone'], ['2'])] ",Northampton-County,36.945136,53.478113,9.576751,18063,40.85,-75.19
43,Nazareth,5714,43.3,57359,48.9,51.1,29044,184833," [(['White alone'], ['5,456']), (['Hispanic'], ['158']), (['Black alone'], ['40']), (['Asian alone'], ['42']), (['Two or more races'], ['42']), (['Other race alone'], ['4']), (['American Indian alone'], ['3']), (['Native Hawaiian and Other Pacific Islander alone</br>], ['1'])]",Northampton-County,36.945136,53.478113,9.576751,18064,40.73,-75.31
44,Northampton,9915,40.4,55737,49.6,50.4,27504,174127," [(['White alone'], ['8,334']), (['Hispanic'], ['902']), (['Asian alone'], ['214']), (['Black alone'], ['168']), (['Two or more races'], ['170']), (['American Indian alone'], ['118'])] ",Northampton-County,36.945136,53.478113,9.576751,18067,40.68,-75.48
45,Pen Argyl,3562,37.0,53742,53.6,46.4,23226,149672," [(['White alone'], ['3,352']), (['Hispanic'], ['143']), (['Two or more races'], ['44']), (['Black alone'], ['34']), (['Asian alone'], ['15']), (['American Indian alone'], ['7'])] ",Northampton-County,36.945136,53.478113,9.576751,18072,40.86,-75.25
46,Portland,514,37.4,53598,46.5,53.5,30961,166360," [(['White alone'], ['472']), (['Black alone'], ['18']), (['Hispanic'], ['17']), (['American Indian alone'], ['4']), (['Asian alone'], ['4']), (['Two or more races'], ['4'])] ",Northampton-County,36.945136,53.478113,9.576751,18351,40.91,-75.09
47,Stockertown,921,39.3,95120,45.0,55.0,32368,235528," [(['White alone'], ['887']), (['Hispanic'], ['28']), (['Two or more races'], ['4']), (['Black alone'], ['3']), (['Asian alone'], ['3']), (['American Indian alone'], ['2'])] ",Northampton-County,36.945136,53.478113,9.576751,18083,40.75,-75.26
48,Tatamy,1138,41.4,79669,51.6,48.4,33569,207189," [(['White alone'], ['1,072']), (['Hispanic'], ['52']), (['Black alone'], ['35']), (['Asian alone'], ['27']), (['Two or more races'], ['12']), (['Other race alone'], ['5'])] ",Northampton-County,36.945136,53.478113,9.576751,18085,40.74,-75.25
49,Walnutport,2063,43.5,66680,50.2,49.8,29795,155549," [(['White alone'], ['1,938']), (['Hispanic'], ['68']), (['Two or more races'], ['23']), (['Black alone'], ['19']), (['Asian alone'], ['17']), (['American Indian alone'], ['3']), (['Native Hawaiian and Other Pacific Islander alone</br>], ['1']), (['Other race alone'], ['1'])]",Northampton-County,36.945136,53.478113,9.576751,18088,40.75,-75.59
50,Wind Gap,2716,45.5,44437,48.1,51.9,25869,163421," [(['White alone'], ['2,551']), (['Hispanic'], ['87']), (['Two or more races'], ['32']), (['Black alone'], ['24']), (['Asian alone'], ['16']), (['Other race alone'], ['5']), (['American Indian alone'], ['4']), (['Native Hawaiian and Other Pacific Islander alone</br>], ['1'])]",Northampton-County,36.945136,53.478113,9.576751,18091,40.84,-75.29
51,Adamstown,1837,33.8,73873,48.9,51.1,30362,209740," [(['White alone'], ['1,633']), (['Asian alone'], ['78']), (['Hispanic'], ['30']), (['Two or more races'], ['27']), (['Black alone'], ['20']), (['Native Hawaiian and Other Pacific Islander alone</br>], ['1'])]",Lancaster-County,32.703154999999995,51.897731,15.399115,19501,40.24,-76.06
52,Akron,3978,35.7,60877,50.7,49.3,29237,173004," [(['White alone'], ['3,575']), (['Hispanic'], ['153']), (['Asian alone'], ['59']), (['Black alone'], ['46']), (['Two or more races'], ['35']), (['American Indian alone'], ['5']), (['Other race alone'], ['3'])] ",Lancaster-County,32.703154999999995,51.897731,15.399115,17501,40.15,-76.2
53,Bainbridge,1355,36.9,61335,48.2,51.8,29740,196400," [(['White alone'], ['1,301']), (['Hispanic'], ['22']), (['Black alone'], ['14']), (['Two or more races'], ['11']), (['American Indian alone'], ['3']), (['Asian alone'], ['3']), (['Native Hawaiian and Other >, 'Pacific Islander alone'], ['1'])]",Lancaster-County,32.703154999999995,51.897731,15.399115,17502,40.09,-76.67
54,Blue Ball,1031,31.4,61335,48.5,51.5,29740,196400," [(['White alone'], ['961']), (['Asian alone'], ['32']), (['Hispanic'], ['15']), (['Two or more races'], ['12']), (['Black alone'], ['6']), (['American Indian alone'], ['5'])] ",Lancaster-County,32.703154999999995,51.897731,15.399115,17506,40.12,-76.03
55,Bowmansville,2077,38.2,61335,50.4,49.6,29740,196400," [(['White alone'], ['1,988']), (['Hispanic'], ['39']), (['Asian alone'], ['20']), (['Two or more races'], ['13']), (['Black alone'], ['11']), (['American Indian alone'], ['4']), (['Native Hawaiian and Other >, 'Pacific Islander alone'], ['2'])]",Lancaster-County,32.703154999999995,51.897731,15.399115,17507,40.21,-76.05
56,Christiana,1170,41.7,57810,43.1,56.9,25012,172902," [(['White alone'], ['990']), (['Hispanic'], ['79']), (['Black alone'], ['67']), (['Two or more races'], ['25']), (['Asian alone'], ['4']), (['American Indian alone'], ['2']), (['Native Hawaiian and Other Pacific Islander alone</br>], ['1'])]",Lancaster-County,32.703154999999995,51.897731,15.399115,17509,39.95,-75.99
57,Columbia,10383,36.8,41028,48.8,51.2,21876,104767," [(['White alone'], ['8,662']), (['Hispanic'], ['938']), (['Black alone'], ['471']), (['Two or more races'], ['245']), (['Asian alone'], ['60']), (['American Indian alone'], ['19']), (['Other race alone'], ['5'])] ",Lancaster-County,32.703154999999995,51.897731,15.399115,17512,40.03,-76.49
58,Conestoga,1258,42.1,61335,47.7,52.3,29740,196400," [(['White alone'], ['1,207']), (['Hispanic'], ['21']), (['Asian alone'], ['15']), (['Two or more races'], ['9']), (['Black alone'], ['4']), (['Other race alone'], ['2'])] ",Lancaster-County,32.703154999999995,51.897731,15.399115,17516,39.93,-76.36
59,Denver,3869,40.4,58674,49.0,51.0,28661,166848," [(['White alone'], ['3,576']), (['Hispanic'], ['222']), (['Black alone'], ['27']), (['Two or more races'], ['29']), (['American Indian alone'], ['6']), (['Asian alone'], ['6'])] ",Lancaster-County,32.703154999999995,51.897731,15.399115,17517,40.23,-76.13
60,East Earl,1144,37.0,61335,48.2,51.8,29740,196400," [(['White alone'], ['1,083']), (['Hispanic'], ['32']), (['Asian alone'], ['15']), (['Black alone'], ['8']), (['Two or more races'], ['4']), (['American Indian alone'], ['1']), (['Other race alone'], ['1'])] ",Lancaster-County,32.703154999999995,51.897731,15.399115,17519,40.14,-76.02
61,East Petersburg,4518,43.5,79000,49.6,50.4,33438,168182," [(['White alone'], ['3,908']), (['Hispanic'], ['309']), (['Black alone'], ['130']), (['Two or more races'], ['92']), (['Asian alone'], ['54']), (['American Indian alone'], ['7']), (['Other race alone'], ['6'])] ",Lancaster-County,32.703154999999995,51.897731,15.399115,17520,40.1,-76.35
62,Elizabethtown,11611,32.9,59025,47.1,52.9,26159,166437," [(['White alone'], ['10,734']), (['Hispanic'], ['381']), (['Black alone'], ['133']), (['Two or more races'], ['135']), (['Asian alone'], ['132']), (['American Indian alone'], ['17']), (['Native Hawaiian and Other Pacific Islander alone</br>], ['7']), (['Other race alone'], ['6'])]",Lancaster-County,32.703154999999995,51.897731,15.399115,17022,40.15,-76.59
63,Ephrata,13837,37.1,52085,50.8,49.2,26874,159049," [(['White alone'], ['12,546']), (['Hispanic'], ['544']), (['Black alone'], ['292']), (['Two or more races'], ['258']), (['Asian alone'], ['85']), (['American Indian alone'], ['20']), (['Native Hawaiian and Other Pacific Islander alone</br>], ['15'])]",Lancaster-County,32.703154999999995,51.897731,15.399115,17522,40.18,-76.18
64,Gap,1931,36.7,76163,49.6,50.4,29671,265048," [(['White alone'], ['1,800']), (['Hispanic'], ['49']), (['Asian alone'], ['31']), (['Two or more races'], ['25']), (['Black alone'], ['24']), (['American Indian alone'], ['1']), (['Other race alone'], ['1'])] ",Lancaster-County,32.703154999999995,51.897731,15.399115,17527,39.98,-76.02
65,Goodville,482,19.5,61335,51.2,48.8,29740,196400," [(['White alone'], ['453']), (['Hispanic'], ['14']), (['Black alone'], ['7']), (['Asian alone'], ['3']), (['Other race alone'], ['3']), (['Two or more races'], ['2'])] ",Lancaster-County,32.703154999999995,51.897731,15.399115,17528,39.89,-76.32
66,Gordonville,508,58.5,61335,45.1,54.9,29740,196400," [(['White alone'], ['482']), (['Black alone'], ['11']), (['Hispanic'], ['10']), (['Two or more races'], ['5'])] ",Lancaster-County,32.703154999999995,51.897731,15.399115,17529,40.04,-76.1
67,Hopeland,738,46.0,61335,45.4,54.6,29740,196400," [(['White alone'], ['698']), (['Hispanic'], ['13']), (['Asian alone'], ['10']), (['Two or more races'], ['10']), (['Black alone'], ['7'])] ",Lancaster-County,32.703154999999995,51.897731,15.399115,17533,40.2,-76.2
68,Intercourse,1274,35.0,61335,51.6,48.4,29740,196400," [(['White alone'], ['1,231']), (['Hispanic'], ['20']), (['Asian alone'], ['15']), (['Black alone'], ['5']), (['Two or more races'], ['2']), (['Other race alone'], ['1'])] ",Lancaster-County,32.703154999999995,51.897731,15.399115,17534,40.06,-76.14
69,Kirkwood,396,28.1,61335,53.2,46.8,29740,196400," [(['White alone'], ['377']), (['Hispanic'], ['17']), (['American Indian alone'], ['1']), (['Native Hawaiian and Other >, 'Pacific Islander alone'], ['1'])]",Lancaster-County,32.703154999999995,51.897731,15.399115,17536,39.82,-76.09
70,Lampeter,1669,36.7,61335,53.7,46.3,29740,196400," [(['White alone'], ['1,499']), (['Hispanic'], ['99']), (['Black alone'], ['24']), (['Asian alone'], ['24']), (['Two or more races'], ['21']), (['American Indian alone'], ['1']), (['Other race alone'], ['1'])] ",Lancaster-County,32.703154999999995,51.897731,15.399115,17537,40.01,-76.24
71,Lancaster,59302,30.8,37516,50.0,50.0,18803,112155," [(['White alone'], ['24,179']), (['Hispanic'], ['24,157']), (['Black alone'], ['8,508']), (['Asian alone'], ['2,287']), (['Two or more races'], ['2,013']), (['Other race alone'], ['73']), (['American Indian alone'], ['9'])] ",Lancaster-County,32.703154999999995,51.897731,15.399115,17601,40.04,-76.3
72,Landisville,1893,46.8,61335,49.7,50.3,29740,196400," [(['White alone'], ['1,731']), (['Hispanic'], ['83']), (['Asian alone'], ['39']), (['Black alone'], ['25']), (['Two or more races'], ['10']), (['American Indian alone'], ['3']), (['Other race alone'], ['2'])] ",Lancaster-County,32.703154999999995,51.897731,15.399115,17538,40.09,-76.41
73,Lititz,9397,44.6,55852,43.5,56.5,33051,190141," [(['White alone'], ['8,549']), (['Hispanic'], ['322']), (['Asian alone'], ['188']), (['Two or more races'], ['93']), (['Black alone'], ['83']), (['American Indian alone'], ['4'])] ",Lancaster-County,32.703154999999995,51.897731,15.399115,17543,40.15,-76.3
74,Manheim,4869,37.7,48918,45.6,54.4,23694,151045," [(['White alone'], ['4,520']), (['Hispanic'], ['165']), (['Two or more races'], ['81']), (['Asian alone'], ['54']), (['Black alone'], ['38'])] ",Lancaster-County,32.703154999999995,51.897731,15.399115,17545,40.16,-76.39
75,Marietta,2604,38.2,52389,45.6,54.4,26459,130625," [(['White alone'], ['2,377']), (['Hispanic'], ['114']), (['Black alone'], ['52']), (['Two or more races'], ['33']), (['Asian alone'], ['6']), (['American Indian alone'], ['3']), (['Other race alone'], ['2']), (['Native Hawaiian and Other Pacific Islander alone</br>], ['1'])]",Lancaster-County,32.703154999999995,51.897731,15.399115,17547,40.05,-76.55
76,Maytown,3824,32.4,85124,52.7,47.3,27137,185728," [(['White alone'], ['3,509']), (['Hispanic'], ['143']), (['Two or more races'], ['74']), (['Black alone'], ['64']), (['Asian alone'], ['25']), (['American Indian alone'], ['5']), (['Native Hawaiian and Other Pacific Islander alone</br>], ['4'])]",Lancaster-County,32.703154999999995,51.897731,15.399115,17550,40.07,-76.58
77,Millersville,8482,22.2,42923,46.5,53.5,20651,161922," [(['White alone'], ['7,227']), (['Black alone'], ['385']), (['Hispanic'], ['351']), (['Asian alone'], ['98']), (['Two or more races'], ['86']), (['American Indian alone'], ['13']), (['Other race alone'], ['5']), (['Native Hawaiian and Other Pacific Islander alone</br>], ['3'])]",Lancaster-County,32.703154999999995,51.897731,15.399115,17551,40.0,-76.35
78,Mount Joy,8008,36.2,58214,48.5,51.5,29344,162230," [(['White alone'], ['6,508']), (['Hispanic'], ['549']), (['Black alone'], ['159']), (['Two or more races'], ['126']), (['Asian alone'], ['55']), (['American Indian alone'], ['12']), (['Other race alone'], ['1'])] ",Lancaster-County,32.703154999999995,51.897731,15.399115,17552,40.11,-76.5
79,Mountville,2849,38.1,50045,44.2,55.8,27531,169413," [(['White alone'], ['2,449']), (['Hispanic'], ['145']), (['Black alone'], ['100']), (['Asian alone'], ['62']), (['Two or more races'], ['41']), (['American Indian alone'], ['4']), (['Native Hawaiian and Other Pacific Islander alone</br>], ['1'])]",Lancaster-County,32.703154999999995,51.897731,15.399115,17554,40.04,-76.43
80,New Holland,5420,42.5,55159,44.1,55.9,27026,203583," [(['White alone'], ['4,162']), (['Hispanic'], ['534']), (['Black alone'], ['330']), (['Two or more races'], ['309']), (['Asian alone'], ['176']), (['American Indian alone'], ['5'])] ",Lancaster-County,32.703154999999995,51.897731,15.399115,17557,40.1,-76.09
81,Paradise,1129,30.4,66499,52.3,47.7,39912,226158," [(['White alone'], ['1,029']), (['Hispanic'], ['57']), (['Two or more races'], ['23']), (['Black alone'], ['14']), (['Other race alone'], ['4']), (['Asian alone'], ['2'])] ",Lancaster-County,32.703154999999995,51.897731,15.399115,17562,40.0,-76.12
82,Penryn,1024,48.2,61335,55.0,45.0,29740,196400," [(['White alone'], ['984']), (['Hispanic'], ['19']), (['Other race alone'], ['10']), (['Black alone'], ['4']), (['Asian alone'], ['4']), (['Two or more races'], ['2']), (['American Indian alone'], ['1'])] ",Lancaster-County,32.703154999999995,51.897731,15.399115,17564,40.16,-76.42
83,Quarryville,2678,31.9,58889,47.6,52.4,26377,187781," [(['White alone'], ['2,367']), (['Hispanic'], ['121']), (['Two or more races'], ['36']), (['Black alone'], ['28']), (['Asian alone'], ['16']), (['Other race alone'], ['5']), (['American Indian alone'], ['3'])] ",Lancaster-County,32.703154999999995,51.897731,15.399115,17566,39.89,-76.16
84,Reamstown,3361,50.3,73461,49.0,51.0,29447,193424," [(['White alone'], ['3,182']), (['Asian alone'], ['68']), (['Hispanic'], ['64']), (['Black alone'], ['20']), (['Two or more races'], ['20']), (['American Indian alone'], ['6']), (['Native Hawaiian and Other Pacific Islander alone</br>], ['1'])]",Lancaster-County,32.703154999999995,51.897731,15.399115,17567,40.21,-76.11
85,Refton,298,49.9,61335,50.7,49.3,29740,196400," [(['White alone'], ['293']), (['Hispanic'], ['4']), (['Asian alone'], ['1'])] ",Lancaster-County,32.703154999999995,51.897731,15.399115,17568,40.01,-76.24
86,Reinholds,1803,39.4,61335,48.9,51.1,29740,196400," [(['White alone'], ['1,684']), (['Hispanic'], ['41']), (['Two or more races'], ['33']), (['Black alone'], ['23']), (['Asian alone'], ['17']), (['American Indian alone'], ['3']), (['Other race alone'], ['2'])] ",Lancaster-County,32.703154999999995,51.897731,15.399115,17569,40.27,-76.11
87,Rheems,1598,43.1,63204,46.7,53.3,30344,197426," [(['White alone'], ['1,531']), (['Hispanic'], ['33']), (['Asian alone'], ['14']), (['Two or more races'], ['11']), (['Black alone'], ['9'])] ",Lancaster-County,32.703154999999995,51.897731,15.399115,17570,40.12,-76.57
88,Ronks,362,42.9,61335,53.1,46.9,29740,196400," [(['White alone'], ['345']), (['Hispanic'], ['11']), (['Black alone'], ['5']), (['Two or more races'], ['1'])] ",Lancaster-County,32.703154999999995,51.897731,15.399115,17572,40.01,-76.16
89,Smoketown,357,25.6,61335,51.8,48.2,29740,196400," [(['White alone'], ['317']), (['Hispanic'], ['28']), (['Black alone'], ['9']), (['Asian alone'], ['2']), (['Two or more races'], ['1'])] ",Lancaster-County,32.703154999999995,51.897731,15.399115,17576,40.04,-76.21
90,Stevens,612,41.3,61335,53.4,46.6,29740,196400," [(['White alone'], ['586']), (['Asian alone'], ['15']), (['Hispanic'], ['10']), (['Two or more races'], ['1'])] ",Lancaster-County,32.703154999999995,51.897731,15.399115,17578,40.23,-76.18
91,Strasburg,2872,37.2,64182,50.1,49.9,30823,200299," [(['White alone'], ['2,657']), (['Hispanic'], ['74']), (['Two or more races'], ['39']), (['Black alone'], ['19']), (['Asian alone'], ['20'])] ",Lancaster-County,32.703154999999995,51.897731,15.399115,17579,39.98,-76.18
92,Terre Hill,1359,34.0,58242,49.4,50.6,25010,208611," [(['White alone'], ['1,230']), (['Hispanic'], ['27']), (['Asian alone'], ['18']), (['Two or more races'], ['10']), (['Black alone'], ['9']), (['American Indian alone'], ['1'])] ",Lancaster-County,32.703154999999995,51.897731,15.399115,17581,40.15,-76.05
93,Washington Boro,729,41.4,61335,50.2,49.8,29740,196400," [(['White alone'], ['712']), (['Hispanic'], ['10']), (['Asian alone'], ['3']), (['Black alone'], ['2']), (['Two or more races'], ['2'])] ",Lancaster-County,32.703154999999995,51.897731,15.399115,17582,39.98,-76.43
94,Willow Street,7578,60.3,61939,45.8,54.2,34532,198350," [(['White alone'], ['7,217']), (['Hispanic'], ['189']), (['Asian alone'], ['71']), (['Black alone'], ['55']), (['Two or more races'], ['40']), (['American Indian alone'], ['4']), (['Native Hawaiian and Other Pacific Islander alone</br>], ['1']), (['Other race alone'], ['1'])]",Lancaster-County,32.703154999999995,51.897731,15.399115,17584,39.98,-76.27
95,Witmer,492,28.9,61335,55.7,44.3,29740,196400," [(['White alone'], ['464']), (['Asian alone'], ['11']), (['Hispanic'], ['11']), (['Black alone'], ['5']), (['Two or more races'], ['1'])] ",Lancaster-County,32.703154999999995,51.897731,15.399115,17585,40.01,-76.24
96,Addison,202,40.8,40443,43.5,56.5,20333,125874," [(['White alone'], ['203']), (['American Indian alone'], ['2']), (['Black alone'], ['1']), (['Two or more races'], ['1'])] ",Somerset-County,23.665175,63.47735400000001,12.857471,15411,39.74,-79.33
97,Berlin,2039,49.9,42685,45.8,54.2,21984,102220," [(['White alone'], ['2,066']), (['Two or more races'], ['17']), (['Asian alone'], ['7']), (['Black alone'], ['4']), (['Hispanic'], ['5']), (['American Indian alone'], ['2']), (['Native Hawaiian and Other Pacific Islander alone</br>], ['3'])]",Somerset-County,23.665175,63.47735400000001,12.857471,15530,39.92,-78.95
98,Boswell,1238,46.2,28342,48.1,51.9,17410,73253," [(['White alone'], ['1,242']), (['Two or more races'], ['15']), (['Black alone'], ['8']), (['Asian alone'], ['7']), (['Hispanic'], ['5'])] ",Somerset-County,23.665175,63.47735400000001,12.857471,15531,40.16,-79.02
99,Cairnbrook,520,43.5,43871,45.3,54.7,23227,104200," [(['White alone'], ['519']), (['Hispanic'], ['1'])] ",Somerset-County,23.665175,63.47735400000001,12.857471,15924,40.11,-78.81
100,Central City,1084,49.2,39124,50.0,50.0,20466,65750," [(['White alone'], ['1,120']), (['Two or more races'], ['2']), (['American Indian alone'], ['1']), (['Hispanic'], ['1'])] ",Somerset-County,23.665175,63.47735400000001,12.857471,15926,40.1,-78.8
101,Confluence,755,49.8,26225,48.8,51.2,19175,82318," [(['White alone'], ['741']), (['Two or more races'], ['22']), (['Hispanic'], ['13']), (['Black alone'], ['2']), (['Asian alone'], ['2'])] ",Somerset-County,23.665175,63.47735400000001,12.857471,15424,39.8,-79.35
102,Davidsville,1130,56.5,50064,47.9,52.1,33585,145151," [(['White alone'], ['1,121']), (['Hispanic'], ['5']), (['Asian alone'], ['3']), (['Two or more races'], ['1'])] ",Somerset-County,23.665175,63.47735400000001,12.857471,15928,40.23,-78.93
103,Friedens,1523,41.4,52849,47.7,52.3,22380,105450," [(['White alone'], ['1,515']), (['Two or more races'], ['3']), (['Asian alone'], ['2']), (['Hispanic'], ['2']), (['American Indian alone'], ['1'])] ",Somerset-County,23.665175,63.47735400000001,12.857471,15541,40.04,-79.0
104,Garrett,441,39.8,39035,51.9,48.1,17845,71690," [(['White alone'], ['453']), (['Hispanic'], ['2']), (['Two or more races'], ['1'])] ",Somerset-County,23.665175,63.47735400000001,12.857471,15542,39.86,-79.06
105,Hooversville,625,48.0,34608,49.7,50.3,20811,75128," [(['White alone'], ['640']), (['Two or more races'], ['2']), (['Hispanic'], ['2']), (['Black alone'], ['1'])] ",Somerset-County,23.665175,63.47735400000001,12.857471,15936,40.15,-78.91
106,Jennerstown,676,46.1,46782,51.0,49.0,25935,150986," [(['White alone'], ['683']), (['Two or more races'], ['8']), (['Hispanic'], ['3']), (['Black alone'], ['1'])] ",Somerset-County,23.665175,63.47735400000001,12.857471,15547,40.16,-79.06
107,Jerome,1017,48.2,47309,43.6,56.4,23392,93884," [(['White alone'], ['992']), (['Two or more races'], ['10']), (['Hispanic'], ['8']), (['Other race alone'], ['4']), (['Asian alone'], ['3'])] ",Somerset-County,23.665175,63.47735400000001,12.857471,15937,40.21,-78.98
108,Meyersdale,2107,48.2,36573,48.6,51.4,21382,84610," [(['White alone'], ['2,152']), (['Two or more races'], ['12']), (['Hispanic'], ['7']), (['Asian alone'], ['5']), (['Black alone'], ['3']), (['Native Hawaiian and Other Pacific Islander alone</br>], ['3']), (['American Indian alone'], ['2'])]",Somerset-County,23.665175,63.47735400000001,12.857471,15552,39.81,-79.02
109,Rockwood,863,35.1,39258,47.3,52.7,21259,80651," [(['White alone'], ['873']), (['Hispanic'], ['8']), (['Two or more races'], ['5']), (['American Indian alone'], ['4'])] ",Somerset-County,23.665175,63.47735400000001,12.857471,15557,39.91,-79.15
110,Salisbury,705,42.8,34709,50.7,49.3,22497,103471," [(['White alone'], ['721']), (['Two or more races'], ['3']), (['American Indian alone'], ['2']), (['Hispanic'], ['1'])] ",Somerset-County,23.665175,63.47735400000001,12.857471,15558,39.75,-79.08
111,Shanksville,232,34.7,63019,48.3,51.7,29131,87945," [(['White alone'], ['225']), (['Two or more races'], ['7']), (['Black alone'], ['1']), (['American Indian alone'], ['1']), (['Asian alone'], ['1']), (['Other race alone'], ['1']), (['Hispanic'], ['1'])] ",Somerset-County,23.665175,63.47735400000001,12.857471,15560,40.01,-78.9
112,Somerset,6092,42.3,35461,43.8,56.2,25151,127020," [(['White alone'], ['6,021']), (['Two or more races'], ['67']), (['Hispanic'], ['71']), (['Asian alone'], ['57']), (['Black alone'], ['50']), (['American Indian alone'], ['11'])] ",Somerset-County,23.665175,63.47735400000001,12.857471,15501,40.0,-79.07
113,Stoystown,340,44.8,37425,39.3,60.7,25783,86382," [(['White alone'], ['354']), (['Two or more races'], ['1'])] ",Somerset-County,23.665175,63.47735400000001,12.857471,15563,40.1,-78.95
114,Ursina,213,40.8,27767,53.4,46.6,15203,84610," [(['White alone'], ['223']), (['Asian alone'], ['1']), (['Hispanic'], ['1'])] ",Somerset-County,23.665175,63.47735400000001,12.857471,15485,39.81,-79.33
115,Windber,4019,41.5,31366,45.0,55.0,21739,82214," [(['White alone'], ['4,035']), (['Hispanic'], ['59']), (['Two or more races'], ['18']), (['Black alone'], ['10']), (['American Indian alone'], ['8']), (['Asian alone'], ['5']), (['Other race alone'], ['2']), (['Native Hawaiian and Other Pacific Islander alone</br>], ['1'])]",Somerset-County,23.665175,63.47735400000001,12.857471,15963,40.23,-78.82
116,Albion,1478,43.5,41115,47.2,52.8,21515,98115," [(['White alone'], ['1,436']), (['Black alone'], ['34']), (['Hispanic'], ['15']), (['Two or more races'], ['9']), (['American Indian alone'], ['4']), (['Asian alone'], ['5'])] ",Erie-County,35.32908300000001,55.740909,8.930008,16401,41.88,-80.36
117,Corry,6457,40.2,44329,46.1,53.9,19638,84531," [(['White alone'], ['5,962']), (['Two or more races'], ['156']), (['Black alone'], ['77']), (['Hispanic'], ['77']), (['Asian alone'], ['40']), (['Native Hawaiian and Other Pacific Islander alone</br>], ['28']), (['American Indian alone'], ['15'])]",Erie-County,35.32908300000001,55.740909,8.930008,16407,41.92,-79.63
118,Cranesville,619,41.4,59205,46.8,53.2,24028,85890," [(['White alone'], ['622']), (['Two or more races'], ['11']), (['Hispanic'], ['4']), (['Native Hawaiian and Other Pacific Islander alone</br>], ['1'])]",Erie-County,35.32908300000001,55.740909,8.930008,16410,41.9,-80.34
119,Edinboro,6437,22.6,37252,46.1,53.9,17794,166137," [(['White alone'], ['5,432']), (['Hispanic'], ['331']), (['Black alone'], ['324']), (['Asian alone'], ['173']), (['Two or more races'], ['64']), (['Other race alone'], ['16']), (['American Indian alone'], ['2'])] ",Erie-County,35.32908300000001,55.740909,8.930008,16412,41.87,-80.12
120,Elgin,215,36.2,67581,46.4,53.6,22350,97488," [(['White alone'], ['217']), (['Black alone'], ['1'])] ",Erie-County,35.32908300000001,55.740909,8.930008,16413,41.91,-79.74
121,Erie,98601,34.0,36476,48.2,51.8,19435,89000," [(['White alone'], ['68,400']), (['Black alone'], ['14,790']), (['Hispanic'], ['8,360']), (['Asian alone'], ['3,468']), (['Two or more races'], ['2,408']), (['Other race alone'], ['595']), (['American Indian alone'], ['427']), (['Native Hawaiian and Other >, 'Pacific Islander alone'], ['153'])]",Erie-County,35.32908300000001,55.740909,8.930008,16501,42.12,-80.08
122,Girard,3041,39.3,55306,46.1,53.9,28567,118908," [(['White alone'], ['3,006']), (['Two or more races'], ['30']), (['Hispanic'], ['22']), (['Black alone'], ['18']), (['Asian alone'], ['18']), (['American Indian alone'], ['9']), (['Other race alone'], ['1'])] ",Erie-County,35.32908300000001,55.740909,8.930008,16417,42.0,-80.31
123,Lake City,2974,35.6,44106,45.9,54.1,21883,109609," [(['White alone'], ['2,913']), (['Hispanic'], ['40']), (['Two or more races'], ['32']), (['Black alone'], ['27']), (['American Indian alone'], ['5']), (['Asian alone'], ['5']), (['Other race alone'], ['7']), (['Native Hawaiian and Other Pacific Islander alone</br>], ['2'])]",Erie-County,35.32908300000001,55.740909,8.930008,16423,42.01,-80.34
124,Mill Village,396,45.2,49906,51.9,48.1,23386,98742," [(['White alone'], ['401']), (['Two or more races'], ['8']), (['Asian alone'], ['2']), (['Black alone'], ['1'])] ",Erie-County,35.32908300000001,55.740909,8.930008,16427,41.87,-79.97
125,North East,4197,35.7,48800,49.8,50.2,23249,126536," [(['White alone'], ['4,106']), (['Hispanic'], ['90']), (['Black alone'], ['43']), (['Two or more races'], ['39']), (['Asian alone'], ['11']), (['American Indian alone'], ['5'])] ",Erie-County,35.32908300000001,55.740909,8.930008,16428,42.21,-79.83
126,Union City,3239,41.1,47581,46.7,53.3,21297,76172," [(['White alone'], ['3,201']), (['Hispanic'], ['52']), (['Two or more races'], ['33']), (['Asian alone'], ['15']), (['Black alone'], ['12']), (['American Indian alone'], ['6']), (['Other race alone'], ['1'])] ",Erie-County,35.32908300000001,55.740909,8.930008,16438,41.89,-79.84
127,Waterford,1543,44.2,45410,45.2,54.8,22084,125491," [(['White alone'], ['1,483']), (['Hispanic'], ['13']), (['Two or more races'], ['8']), (['Black alone'], ['6']), (['Asian alone'], ['4']), (['American Indian alone'], ['3'])] ",Erie-County,35.32908300000001,55.740909,8.930008,16441,41.94,-79.98
128,Wattsburg,388,34.9,39344,55.6,44.4,16820,88502," [(['White alone'], ['394']), (['Hispanic'], ['6']), (['Two or more races'], ['2']), (['Black alone'], ['1'])] ",Erie-County,35.32908300000001,55.740909,8.930008,16442,42.0,-79.8
129,Albrightsville,202,49.9,51676,40.7,59.3,26306,139000," [(['White alone'], ['180']), (['Hispanic'], ['14']), (['Black alone'], ['5']), (['Asian alone'], ['2']), (['Two or more races'], ['1'])] ",Carbon-County,25.709742,63.51531899999999,10.774939,18210,40.96,-75.61
130,Beaver Meadows,850,48.9,38099,54.0,46.0,23142,80075," [(['White alone'], ['828']), (['Hispanic'], ['23']), (['Two or more races'], ['11']), (['Black alone'], ['4']), (['Asian alone'], ['2']), (['American Indian alone'], ['1'])] ",Carbon-County,25.709742,63.51531899999999,10.774939,18216,40.92,-75.91
131,Bowmanstown,892,47.1,52677,53.5,46.5,26948,137131," [(['White alone'], ['885']), (['Hispanic'], ['25']), (['Two or more races'], ['12']), (['Asian alone'], ['6']), (['Black alone'], ['5']), (['American Indian alone'], ['4'])] ",Carbon-County,25.709742,63.51531899999999,10.774939,18030,40.8,-75.66
132,Jim Thorpe,4683,45.1,54136,51.1,48.9,22044,133294," [(['White alone'], ['4,559']), (['Hispanic'], ['119']), (['Two or more races'], ['49']), (['Asian alone'], ['27']), (['Black alone'], ['19']), (['Other race alone'], ['5']), (['Native Hawaiian and Other Pacific Islander alone</br>], ['3'])]",Carbon-County,25.709742,63.51531899999999,10.774939,18229,40.87,-75.73
133,Lansford,3836,43.8,31121,47.0,53.0,19032,46825," [(['White alone'], ['3,650']), (['Hispanic'], ['171']), (['Two or more races'], ['64']), (['Black alone'], ['35']), (['Asian alone'], ['12']), (['American Indian alone'], ['8']), (['Native Hawaiian and Other Pacific Islander alone</br>], ['1'])]",Carbon-County,25.709742,63.51531899999999,10.774939,18232,40.83,-75.88
134,Lehighton,5365,42.5,43763,42.6,57.4,20968,144312," [(['White alone'], ['5,172']), (['Hispanic'], ['202']), (['Two or more races'], ['60']), (['Black alone'], ['27']), (['Asian alone'], ['27']), (['American Indian alone'], ['10']), (['Native Hawaiian and Other Pacific Islander alone</br>], ['1']), (['Other race alone'], ['1'])]",Carbon-County,25.709742,63.51531899999999,10.774939,18235,40.83,-75.71
135,Nesquehoning,3279,43.2,44288,50.4,49.6,21739,76927," [(['White alone'], ['3,191']), (['Hispanic'], ['80']), (['Black alone'], ['39']), (['Two or more races'], ['25']), (['American Indian alone'], ['8']), (['Other race alone'], ['3']), (['Asian alone'], ['2']), (['Native Hawaiian and Other Pacific Islander alone</br>], ['1'])]",Carbon-County,25.709742,63.51531899999999,10.774939,18240,40.86,-75.82
136,Palmerton,5350,42.1,53899,50.0,50.0,24024,108406," [(['White alone'], ['5,104']), (['Hispanic'], ['210']), (['Two or more races'], ['43']), (['Asian alone'], ['26']), (['Black alone'], ['23']), (['American Indian alone'], ['3']), (['Other race alone'], ['3']), (['Native Hawaiian and Other Pacific Islander alone</br>], ['2'])]",Carbon-County,25.709742,63.51531899999999,10.774939,18071,40.8,-75.61
137,Parryville,512,46.9,52111,48.9,51.1,22613,120703," [(['White alone'], ['512']), (['Hispanic'], ['11']), (['Black alone'], ['1']), (['Asian alone'], ['1'])] ",Carbon-County,25.709742,63.51531899999999,10.774939,18244,40.82,-75.66
138,Summit Hill,2976,42.6,60142,51.9,48.1,29433,98372," [(['White alone'], ['2,929']), (['Hispanic'], ['54']), (['Two or more races'], ['21']), (['Black alone'], ['16']), (['Asian alone'], ['10']), (['American Indian alone'], ['3']), (['Native Hawaiian and Other Pacific Islander alone</br>], ['1'])]",Carbon-County,25.709742,63.51531899999999,10.774939,18250,40.82,-75.84
139,Tresckow,880,52.0,43801,49.7,50.3,24866,98176," [(['White alone'], ['855']), (['Hispanic'], ['18']), (['Two or more races'], ['5']), (['Black alone'], ['2'])] ",Carbon-County,25.709742,63.51531899999999,10.774939,18254,40.91,-75.96
140,Weatherly,2479,46.8,48051,50.1,49.9,23154,110275," [(['White alone'], ['2,406']), (['Hispanic'], ['63']), (['Two or more races'], ['28']), (['Black alone'], ['13']), (['Asian alone'], ['11']), (['American Indian alone'], ['3']), (['Other race alone'], ['1'])] ",Carbon-County,25.709742,63.51531899999999,10.774939,18255,40.94,-75.82
141,Alburtis,2402,34.4,78340,50.5,49.5,30744,179261," [(['White alone'], ['2,127']), (['Hispanic'], ['131']), (['Black alone'], ['43']), (['Asian alone'], ['30']), (['Two or more races'], ['29']), (['American Indian alone'], ['1'])] ",Lehigh-County,37.977429,50.087933,11.934639,18011,40.5,-75.6
142,Allentown,120440,30.5,35813,48.1,51.9,18507,121800," [(['White alone'], ['50,964']), (['Hispanic'], ['50,461']), (['Black alone'], ['11,336']), (['Asian alone'], ['2,452']), (['Two or more races'], ['2,384']), (['American Indian alone'], ['200']), (['Other race alone'], ['224']), (['Native Hawaiian and Other >, 'Pacific Islander alone'], ['11'])]",Lehigh-County,37.977429,50.087933,11.934639,18101,40.59,-75.47
143,Breinigsville,4138,36.0,60498,53.4,46.6,32424,198800," [(['White alone'], ['3,119']), (['Asian alone'], ['458']), (['Hispanic'], ['293']), (['Black alone'], ['199']), (['Two or more races'], ['49']), (['American Indian alone'], ['13']), (['Other race alone'], ['7'])] ",Lehigh-County,37.977429,50.087933,11.934639,18031,40.55,-75.66
144,Catasauqua,6512,37.1,54327,45.7,54.3,25941,158378," [(['White alone'], ['5,393']), (['Hispanic'], ['673']), (['Black alone'], ['168']), (['Two or more races'], ['144']), (['Asian alone'], ['38']), (['Other race alone'], ['14']), (['American Indian alone'], ['5']), (['Native Hawaiian and Other Pacific Islander alone</br>], ['1'])]",Lehigh-County,37.977429,50.087933,11.934639,18032,40.65,-75.46
145,Coopersburg,2406,44.8,56485,48.7,51.3,35095,210585," [(['White alone'], ['2,235']), (['Hispanic'], ['84']), (['Asian alone'], ['27']), (['Two or more races'], ['20']), (['Black alone'], ['13']), (['American Indian alone'], ['3']), (['Other race alone'], ['3']), (['Native Hawaiian and Other Pacific Islander alone</br>], ['1'])]",Lehigh-County,37.977429,50.087933,11.934639,18036,40.51,-75.39
146,Coplay,3222,44.4,52411,49.3,50.7,29048,159619," [(['White alone'], ['2,857']), (['Hispanic'], ['202']), (['Black alone'], ['67']), (['Two or more races'], ['31']), (['Asian alone'], ['26']), (['American Indian alone'], ['9'])] ",Lehigh-County,37.977429,50.087933,11.934639,18037,40.67,-75.49
147,Emmaus,11335,41.0,57958,47.3,52.7,33065,180915," [(['White alone'], ['10,088']), (['Hispanic'], ['486']), (['Asian alone'], ['293']), (['Two or more races'], ['200']), (['Black alone'], ['142']), (['American Indian alone'], ['21'])] ",Lehigh-County,37.977429,50.087933,11.934639,18049,40.53,-75.49
148,Laurys Station,1243,48.1,60498,51.8,48.2,32424,198800," [(['White alone'], ['1,147']), (['Hispanic'], ['53']), (['Black alone'], ['16']), (['Asian alone'], ['16']), (['Two or more races'], ['7']), (['American Indian alone'], ['2']), (['Other race alone'], ['2'])] ",Lehigh-County,37.977429,50.087933,11.934639,18059,40.72,-75.53
149,Macungie,3116,40.6,63117,53.0,47.0,33486,191150," [(['White alone'], ['2,758']), (['Hispanic'], ['160']), (['Asian alone'], ['56']), (['Black alone'], ['46']), (['Two or more races'], ['46']), (['American Indian alone'], ['4']), (['Other race alone'], ['4'])] ",Lehigh-County,37.977429,50.087933,11.934639,18062,40.51,-75.55
150,New Tripoli,898,32.3,60498,49.9,50.1,32424,198800," [(['White alone'], ['828']), (['Hispanic'], ['47']), (['Black alone'], ['9']), (['Two or more races'], ['9']), (['American Indian alone'], ['2']), (['Asian alone'], ['1']), (['Native Hawaiian and Other >, 'Pacific Islander alone'], ['1']), (['Other race alone'], ['1'])]",Lehigh-County,37.977429,50.087933,11.934639,18066,40.65,-75.74
151,Schnecksville,2935,40.4,79444,48.0,52.0,41486,246562," [(['White alone'], ['2,751']), (['Hispanic'], ['85']), (['Asian alone'], ['40']), (['Two or more races'], ['34']), (['Black alone'], ['22']), (['American Indian alone'], ['2']), (['Other race alone'], ['1'])] ",Lehigh-County,37.977429,50.087933,11.934639,18078,40.67,-75.61
152,Slatedale,455,43.3,60498,48.1,51.9,32424,198800," [(['White alone'], ['444']), (['Asian alone'], ['5']), (['Hispanic'], ['5']), (['Two or more races'], ['1'])] ",Lehigh-County,37.977429,50.087933,11.934639,18079,40.73,-75.63
153,Slatington,4267,41.2,50804,47.2,52.8,25997,127674," [(['White alone'], ['3,857']), (['Hispanic'], ['221']), (['Two or more races'], ['59']), (['Black alone'], ['55']), (['Asian alone'], ['21']), (['American Indian alone'], ['17']), (['Other race alone'], ['2'])] ",Lehigh-County,37.977429,50.087933,11.934639,18080,40.75,-75.61
154,Trexlertown,1988,34.9,60498,52.8,47.2,32424,198800," [(['White alone'], ['1,607']), (['Asian alone'], ['161']), (['Hispanic'], ['95']), (['Black alone'], ['81']), (['Two or more races'], ['39']), (['Other race alone'], ['4']), (['American Indian alone'], ['1'])] ",Lehigh-County,37.977429,50.087933,11.934639,18087,40.56,-75.6
155,Brookhaven,8073,42.0,68738,48.1,51.9,37204,201517," [(['White alone'], ['7,281']), (['Black alone'], ['291']), (['Hispanic'], ['161']), (['Asian alone'], ['151']), (['Two or more races'], ['111']), (['American Indian alone'], ['6']), (['Other race alone'], ['5'])] ",Delaware-County,44.301798,48.100864,7.5973380000000015,19015,39.87,-75.39
156,Broomall,10789,46.1,79746,48.6,51.4,36365,327991," [(['White alone'], ['9,515']), (['Asian alone'], ['829']), (['Black alone'], ['196']), (['Hispanic'], ['146']), (['Two or more races'], ['96']), (['Other race alone'], ['5']), (['American Indian alone'], ['2'])] ",Delaware-County,44.301798,48.100864,7.5973380000000015,19008,39.96,-75.35
157,Chester Heights,2622,44.1,87572,47.9,52.1,42398,253975," [(['White alone'], ['2,313']), (['Black alone'], ['77']), (['Asian alone'], ['77']), (['Hispanic'], ['37']), (['Two or more races'], ['24']), (['Other race alone'], ['2']), (['American Indian alone'], ['1'])] ",Delaware-County,44.301798,48.100864,7.5973380000000015,19017,39.89,-75.46
158,Chester,34133,30.5,27779,48.3,51.7,15626,68575," [(['Black alone'], ['24,149']), (['White alone'], ['5,178']), (['Hispanic'], ['4,333']), (['Two or more races'], ['831']), (['Asian alone'], ['221']), (['American Indian alone'], ['85']), (['Other race alone'], ['19'])] ",Delaware-County,44.301798,48.100864,7.5973380000000015,19013,39.84,-75.37
159,Clifton Heights,6668,32.6,45650,44.8,55.2,23420,133660," [(['White alone'], ['4,535']), (['Black alone'], ['1,377']), (['Asian alone'], ['641']), (['Hispanic'], ['80']), (['Two or more races'], ['47']), (['American Indian alone'], ['12'])] ",Delaware-County,44.301798,48.100864,7.5973380000000015,19018,39.92,-75.29
160,Darby,10695,30.0,34905,45.2,54.8,17198,75967," [(['Black alone'], ['8,330']), (['White alone'], ['1,706']), (['Two or more races'], ['304']), (['Hispanic'], ['228']), (['Asian alone'], ['74']), (['American Indian alone'], ['26']), (['Other race alone'], ['16']), (['Native Hawaiian and Other Pacific Islander alone</br>], ['3'])]",Delaware-County,44.301798,48.100864,7.5973380000000015,19023,39.92,-75.26
161,Drexel Hill,28043,37.5,66528,47.5,52.5,34711,188377," [(['White alone'], ['21,170']), (['Black alone'], ['3,656']), (['Hispanic'], ['1,450']), (['Asian alone'], ['1,287']), (['Two or more races'], ['592']), (['American Indian alone'], ['16'])] ",Delaware-County,44.301798,48.100864,7.5973380000000015,19026,39.94,-75.3
162,Folcroft,6636,35.2,62004,50.4,49.6,24482,115592," [(['White alone'], ['4,301']), (['Black alone'], ['1,671']), (['Hispanic'], ['302']), (['Asian alone'], ['190']), (['Two or more races'], ['125']), (['American Indian alone'], ['9']), (['Other race alone'], ['6']), (['Native Hawaiian and Other Pacific Islander alone</br>], ['2'])]",Delaware-County,44.301798,48.100864,7.5973380000000015,19032,39.88,-75.27
163,Folsom,8323,37.5,83913,51.2,48.8,34986,207984," [(['White alone'], ['7,310']), (['Hispanic'], ['417']), (['Black alone'], ['256']), (['Asian alone'], ['242']), (['Other race alone'], ['79']), (['American Indian alone'], ['56']), (['Two or more races'], ['49'])] ",Delaware-County,44.301798,48.100864,7.5973380000000015,19033,39.89,-75.32
164,Glenolden,7174,40.9,61738,45.4,54.6,29068,156655," [(['White alone'], ['6,015']), (['Black alone'], ['584']), (['Hispanic'], ['252']), (['Two or more races'], ['140']), (['Asian alone'], ['83']), (['American Indian alone'], ['16']), (['Native Hawaiian and Other Pacific Islander alone</br>], ['16'])]",Delaware-County,44.301798,48.100864,7.5973380000000015,19036,39.89,-75.29
165,Lansdowne,10641,39.3,55735,46.3,53.7,33237,164252," [(['Black alone'], ['5,811']), (['White alone'], ['3,652']), (['Asian alone'], ['529']), (['Hispanic'], ['439']), (['Two or more races'], ['234']), (['Other race alone'], ['74']), (['American Indian alone'], ['26']), (['Native Hawaiian and Other Pacific Islander alone</br>], ['20'])]",Delaware-County,44.301798,48.100864,7.5973380000000015,19050,39.94,-75.27
166,Marcus Hook,2399,32.5,38744,46.3,53.7,17197,80894," [(['White alone'], ['1,934']), (['Black alone'], ['307']), (['Two or more races'], ['78']), (['Hispanic'], ['71']), (['American Indian alone'], ['2']), (['Asian alone'], ['2']), (['Other race alone'], ['2']), (['Native Hawaiian and Other Pacific Islander alone</br>], ['1'])]",Delaware-County,44.301798,48.100864,7.5973380000000015,19061,39.81,-75.41
167,Media,5344,39.1,70247,42.6,57.4,43680,295859," [(['White alone'], ['4,415']), (['Black alone'], ['623']), (['Hispanic'], ['114']), (['Two or more races'], ['100']), (['Asian alone'], ['27']), (['American Indian alone'], ['17'])] ",Delaware-County,44.301798,48.100864,7.5973380000000015,19063,39.91,-75.38
168,Morton,2690,42.2,59962,43.3,56.7,34083,191251," [(['White alone'], ['1,707']), (['Black alone'], ['664']), (['Asian alone'], ['161']), (['Two or more races'], ['65']), (['Hispanic'], ['58']), (['American Indian alone'], ['7']), (['Other race alone'], ['7'])] ",Delaware-County,44.301798,48.100864,7.5973380000000015,19070,39.91,-75.32
169,Norwood,5901,39.4,71764,48.3,51.7,29431,170001," [(['White alone'], ['5,204']), (['Two or more races'], ['258']), (['Asian alone'], ['209']), (['Black alone'], ['88']), (['Hispanic'], ['68']), (['American Indian alone'], ['13'])] ",Delaware-County,44.301798,48.100864,7.5973380000000015,19074,39.88,-75.29
170,Prospect Park,6484,36.1,58880,47.5,52.5,27940,186837," [(['White alone'], ['5,910']), (['Black alone'], ['183']), (['Hispanic'], ['124']), (['Asian alone'], ['118']), (['Two or more races'], ['102']), (['American Indian alone'], ['9']), (['Other race alone'], ['7']), (['Native Hawaiian and Other Pacific Islander alone</br>], ['1'])]",Delaware-County,44.301798,48.100864,7.5973380000000015,19076,39.88,-75.3
171,Ridley Park,7034,42.4,72226,50.5,49.5,36642,218250," [(['White alone'], ['6,587']), (['Asian alone'], ['206']), (['Hispanic'], ['55']), (['Two or more races'], ['52']), (['Other race alone'], ['34']), (['American Indian alone'], ['11']), (['Black alone'], ['8'])] ",Delaware-County,44.301798,48.100864,7.5973380000000015,19078,39.87,-75.32
172,Sharon Hill,5706,35.3,52979,48.8,51.2,23032,123189," [(['Black alone'], ['3,390']), (['White alone'], ['1,802']), (['Two or more races'], ['187']), (['Hispanic'], ['183']), (['Asian alone'], ['114']), (['American Indian alone'], ['15']), (['Other race alone'], ['5']), (['Native Hawaiian and Other Pacific Islander alone</br>], ['1'])]",Delaware-County,44.301798,48.100864,7.5973380000000015,19079,39.9,-75.26
173,Springfield,23802,41.9,89126,47.9,52.1,39216,305881," [(['White alone'], ['22,766']), (['Asian alone'], ['464']), (['Black alone'], ['166']), (['Hispanic'], ['146']), (['Two or more races'], ['113']), (['American Indian alone'], ['12']), (['Other race alone'], ['7']), (['Native Hawaiian and Other >, 'Pacific Islander alone'], ['3'])]",Delaware-County,44.301798,48.100864,7.5973380000000015,19064,39.93,-75.34
174,Swarthmore,6202,31.2,94197,48.9,51.1,46895,387943," [(['White alone'], ['4,896']), (['Asian alone'], ['467']), (['Hispanic'], ['305']), (['Black alone'], ['294']), (['Two or more races'], ['198']), (['American Indian alone'], ['15']), (['Other race alone'], ['15']), (['Native Hawaiian and Other Pacific Islander alone</br>], ['4'])]",Delaware-County,44.301798,48.100864,7.5973380000000015,19081,39.9,-75.34
175,Woodlyn,9485,40.5,59614,48.1,51.9,29873,194741," [(['White alone'], ['7,987']), (['Black alone'], ['987']), (['Hispanic'], ['215']), (['Two or more races'], ['154']), (['Asian alone'], ['121']), (['Other race alone'], ['12']), (['American Indian alone'], ['9'])] ",Delaware-County,44.301798,48.100864,7.5973380000000015,19094,39.87,-75.34
176,Alexandria,333,40.7,56368,48.9,51.1,24182,127175," [(['White alone'], ['337']), (['Hispanic'], ['5']), (['Two or more races'], ['2']), (['Black alone'], ['1']), (['Asian alone'], ['1'])] ",Huntingdon-County,21.867833,66.73801999999999,11.394147,16611,40.55,-78.1
177,Huntingdon,7037,32.8,40712,46.9,53.1,18610,115340," [(['White alone'], ['6,646']), (['Black alone'], ['131']), (['Asian alone'], ['106']), (['Hispanic'], ['106']), (['Two or more races'], ['91']), (['Other race alone'], ['8']), (['American Indian alone'], ['5'])] ",Huntingdon-County,21.867833,66.73801999999999,11.394147,16652,40.49,-78.01
178,Mill Creek,326,42.4,28796,51.4,48.6,21763,79108," [(['White alone'], ['321']), (['Asian alone'], ['3']), (['Two or more races'], ['2']), (['Black alone'], ['1']), (['American Indian alone'], ['1'])] ",Huntingdon-County,21.867833,66.73801999999999,11.394147,17060,40.43,-77.92
179,Mount Union,2405,40.9,28032,45.4,54.6,18250,77032," [(['White alone'], ['2,042']), (['Black alone'], ['253']), (['Two or more races'], ['103']), (['Hispanic'], ['42']), (['Asian alone'], ['4']), (['American Indian alone'], ['2']), (['Other race alone'], ['1'])] ",Huntingdon-County,21.867833,66.73801999999999,11.394147,17066,40.38,-77.88
180,Orbisonia,417,27.8,43712,40.6,59.4,24333,96757," [(['White alone'], ['421']), (['Hispanic'], ['3']), (['Asian alone'], ['2']), (['Black alone'], ['1']), (['Two or more races'], ['1'])] ",Huntingdon-County,21.867833,66.73801999999999,11.394147,17243,40.24,-77.89
181,Petersburg,473,36.4,37579,50.5,49.5,17412,84195," [(['White alone'], ['468']), (['Hispanic'], ['6']), (['Other race alone'], ['4']), (['Asian alone'], ['1']), (['Two or more races'], ['1'])] ",Huntingdon-County,21.867833,66.73801999999999,11.394147,16669,40.57,-78.04
182,Rockhill Furnace,413,40.9,38919,45.9,54.1,23049,100267," [(['White alone'], ['404']), (['Hispanic'], ['10'])] ",Huntingdon-County,21.867833,66.73801999999999,11.394147,17249,40.24,-77.9
183,Saltillo,346,37.2,53128,44.0,56.0,23421,94888," [(['White alone'], ['341']), (['Two or more races'], ['2']), (['Black alone'], ['1']), (['American Indian alone'], ['1']), (['Hispanic'], ['1'])] ",Huntingdon-County,21.867833,66.73801999999999,11.394147,17253,40.21,-78.0
184,Three Springs,436,44.4,43572,50.1,49.9,23249,116170," [(['White alone'], ['437']), (['Two or more races'], ['5']), (['Asian alone'], ['1']), (['Hispanic'], ['1'])] ",Huntingdon-County,21.867833,66.73801999999999,11.394147,17264,40.19,-77.98
185,Aliquippa,9244,42.2,34487,44.2,55.8,20991,72468," [(['White alone'], ['5,338']), (['Black alone'], ['3,461']), (['Hispanic'], ['267']), (['Two or more races'], ['112']), (['Asian alone'], ['41']), (['American Indian alone'], ['7'])] ",Beaver-County,35.025265000000005,56.907178,8.067558,15001,40.61,-80.25
186,Ambridge,6895,40.0,35927,46.3,53.7,21229,73579," [(['White alone'], ['4,869']), (['Black alone'], ['1,319']), (['Two or more races'], ['470']), (['Hispanic'], ['163']), (['Asian alone'], ['40']), (['American Indian alone'], ['23']), (['Other race alone'], ['15'])] ",Beaver-County,35.025265000000005,56.907178,8.067558,15003,40.59,-80.22
187,Baden,4056,50.6,42959,46.6,53.4,30828,110147," [(['White alone'], ['3,980']), (['Black alone'], ['63']), (['Two or more races'], ['38']), (['Hispanic'], ['38']), (['Asian alone'], ['13']), (['American Indian alone'], ['3'])] ",Beaver-County,35.025265000000005,56.907178,8.067558,15005,40.63,-80.22
188,Beaver Falls,8740,32.8,32324,47.0,53.0,21248,67022," [(['White alone'], ['6,712']), (['Black alone'], ['1,725']), (['Two or more races'], ['373']), (['Hispanic'], ['105']), (['Asian alone'], ['37']), (['Other race alone'], ['23']), (['American Indian alone'], ['11']), (['Native Hawaiian and Other Pacific Islander alone</br>], ['1'])]",Beaver-County,35.025265000000005,56.907178,8.067558,15010,40.76,-80.32
189,Beaver,4440,47.4,54448,45.8,54.2,34298,186616," [(['White alone'], ['4,292']), (['Hispanic'], ['76']), (['Black alone'], ['60']), (['Two or more races'], ['52']), (['Asian alone'], ['40']), (['Other race alone'], ['8']), (['American Indian alone'], ['3'])] ",Beaver-County,35.025265000000005,56.907178,8.067558,15009,40.69,-80.3
190,Conway,2155,43.7,54664,48.3,51.7,28923,144491," [(['White alone'], ['2,087']), (['Two or more races'], ['30']), (['Black alone'], ['25']), (['Hispanic'], ['21']), (['Asian alone'], ['6']), (['Other race alone'], ['4']), (['American Indian alone'], ['3'])] ",Beaver-County,35.025265000000005,56.907178,8.067558,15027,40.66,-80.24
191,Darlington,252,34.4,46340,49.6,50.4,22407,92141," [(['White alone'], ['250']), (['Asian alone'], ['3']), (['Hispanic'], ['1'])] ",Beaver-County,35.025265000000005,56.907178,8.067558,16115,40.81,-80.42
192,Freedom,1537,39.2,40205,52.2,47.8,20488,71468," [(['White alone'], ['1,431']), (['Black alone'], ['64']), (['Two or more races'], ['40']), (['Hispanic'], ['25']), (['Asian alone'], ['9'])] ",Beaver-County,35.025265000000005,56.907178,8.067558,15042,40.68,-80.25
193,Industry,1800,43.8,61321,50.2,49.8,29193,120928," [(['White alone'], ['1,758']), (['Hispanic'], ['34']), (['Two or more races'], ['12']), (['Black alone'], ['6']), (['Asian alone'], ['6']), (['American Indian alone'], ['2'])] ",Beaver-County,35.025265000000005,56.907178,8.067558,15052,40.65,-80.4
194,Koppel,747,38.1,48617,45.9,54.1,24907,82249," [(['White alone'], ['725']), (['Black alone'], ['16']), (['Hispanic'], ['13']), (['Two or more races'], ['6']), (['Asian alone'], ['2'])] ",Beaver-County,35.025265000000005,56.907178,8.067558,16136,40.83,-80.32
195,Midland,2579,43.9,30487,43.7,56.3,16270,72912," [(['White alone'], ['1,874']), (['Black alone'], ['532']), (['Hispanic'], ['114']), (['Two or more races'], ['94']), (['American Indian alone'], ['7']), (['Asian alone'], ['7']), (['Other race alone'], ['7'])] ",Beaver-County,35.025265000000005,56.907178,8.067558,15059,40.63,-80.45
196,Monaca,5676,44.5,43695,47.7,52.3,27039,111592," [(['White alone'], ['5,431']), (['Black alone'], ['112']), (['Two or more races'], ['95']), (['Hispanic'], ['69']), (['Asian alone'], ['24']), (['American Indian alone'], ['5']), (['Other race alone'], ['1'])] ",Beaver-County,35.025265000000005,56.907178,8.067558,15061,40.68,-80.27
197,New Brighton,5915,37.7,37486,45.6,54.4,20077,81582," [(['White alone'], ['4,986']), (['Black alone'], ['643']), (['Two or more races'], ['277']), (['Hispanic'], ['91']), (['American Indian alone'], ['15']), (['Asian alone'], ['9']), (['Other race alone'], ['4'])] ",Beaver-County,35.025265000000005,56.907178,8.067558,15066,40.73,-80.3
198,New Galilee,367,37.1,50552,52.2,47.8,20558,80470," [(['White alone'], ['356']), (['Black alone'], ['9']), (['Hispanic'], ['8']), (['Two or more races'], ['4']), (['Other race alone'], ['2'])] ",Beaver-County,35.025265000000005,56.907178,8.067558,16141,40.83,-80.4
199,Rochester,3587,44.2,39525,48.4,51.6,24240,82138," [(['White alone'], ['2,836']), (['Black alone'], ['571']), (['Two or more races'], ['174']), (['Hispanic'], ['64']), (['American Indian alone'], ['7']), (['Asian alone'], ['3']), (['Native Hawaiian and Other Pacific Islander alone</br>], ['1']), (['Other race alone'], ['1'])]",Beaver-County,35.025265000000005,56.907178,8.067558,15074,40.7,-80.28
200,Shippingport,212,45.8,28887,48.3,51.7,20015,90807," [(['White alone'], ['202']), (['Two or more races'], ['9']), (['Black alone'], ['3'])] ",Beaver-County,35.025265000000005,56.907178,8.067558,15077,40.62,-80.42
201,South Heights,463,46.7,51217,57.3,42.7,28777,95142," [(['White alone'], ['455']), (['Black alone'], ['9']), (['Hispanic'], ['6']), (['Two or more races'], ['5'])] ",Beaver-County,35.025265000000005,56.907178,8.067558,15081,40.57,-80.23
202,Bally,1099,41.8,64991,51.4,48.6,29267,176662," [(['White alone'], ['1,055']), (['Hispanic'], ['15']), (['Two or more races'], ['8']), (['Black alone'], ['6']), (['Asian alone'], ['6'])] ",Berks-County,31.591554,53.940852,14.467594,19503,40.4,-75.58
203,Bechtelsville,940,42.3,64558,52.4,47.6,30928,172835," [(['White alone'], ['919']), (['Hispanic'], ['12']), (['Two or more races'], ['8']), (['Black alone'], ['1']), (['American Indian alone'], ['1']), (['Asian alone'], ['1'])] ",Berks-County,31.591554,53.940852,14.467594,19505,40.37,-75.63
204,Bernville,951,39.8,54757,47.7,52.3,26261,160837," [(['White alone'], ['855']), (['Hispanic'], ['73']), (['Black alone'], ['10']), (['Two or more races'], ['10']), (['American Indian alone'], ['3']), (['Native Hawaiian and Other Pacific Islander alone</br>], ['2']), (['Asian alone'], ['1']), (['Other race alone'], ['1'])]",Berks-County,31.591554,53.940852,14.467594,19506,40.43,-76.11
205,Bethel,499,24.5,59286,51.8,48.2,29321,174800," [(['White alone'], ['454']), (['Hispanic'], ['31']), (['Asian alone'], ['9']), (['Two or more races'], ['3']), (['Black alone'], ['1']), (['Other race alone'], ['1'])] ",Berks-County,31.591554,53.940852,14.467594,19507,40.47,-76.29
206,Birdsboro,5150,40.9,64496,51.4,48.6,29306,162492," [(['White alone'], ['4,833']), (['Hispanic'], ['165']), (['Two or more races'], ['79']), (['Black alone'], ['65']), (['Asian alone'], ['14']), (['American Indian alone'], ['6']), (['Other race alone'], ['1'])] ",Berks-County,31.591554,53.940852,14.467594,19508,40.26,-75.81
207,Blandon,7152,40.9,59286,47.0,53.0,29321,174800," [(['White alone'], ['6,280']), (['Hispanic'], ['423']), (['Black alone'], ['230']), (['Asian alone'], ['101']), (['Two or more races'], ['103']), (['Other race alone'], ['8']), (['American Indian alone'], ['5']), (['Native Hawaiian and Other >, 'Pacific Islander alone'], ['2'])]",Berks-County,31.591554,53.940852,14.467594,19510,40.44,-75.87
208,Bowers,326,68.7,59286,69.3,30.7,29321,174800," [(['White alone'], ['315']), (['Hispanic'], ['7']), (['American Indian alone'], ['3']), (['Asian alone'], ['1'])] ",Berks-County,31.591554,53.940852,14.467594,19511,40.52,-75.74
209,Boyertown,4037,45.5,42366,48.9,51.1,26515,160526," [(['White alone'], ['3,926']), (['Hispanic'], ['45']), (['Two or more races'], ['36']), (['Asian alone'], ['25']), (['Black alone'], ['19']), (['American Indian alone'], ['2']), (['Other race alone'], ['2'])] ",Berks-County,31.591554,53.940852,14.467594,19512,40.33,-75.63
210,Centerport,397,38.8,49346,49.7,50.3,29646,176351," [(['White alone'], ['369']), (['Hispanic'], ['14']), (['Black alone'], ['2']), (['American Indian alone'], ['2'])] ",Berks-County,31.591554,53.940852,14.467594,19516,40.48,-76.0
211,Douglassville,448,54.7,59286,48.0,52.0,29321,174800," [(['White alone'], ['406']), (['Hispanic'], ['23']), (['Asian alone'], ['9']), (['Black alone'], ['6']), (['Two or more races'], ['4'])] ",Berks-County,31.591554,53.940852,14.467594,19518,40.26,-75.74
212,Fleetwood,4078,38.1,71137,49.5,50.5,33671,159699," [(['White alone'], ['3,843']), (['Hispanic'], ['138']), (['Two or more races'], ['38']), (['Black alone'], ['32']), (['Asian alone'], ['29']), (['American Indian alone'], ['4']), (['Other race alone'], ['1'])] ",Berks-County,31.591554,53.940852,14.467594,19522,40.45,-75.82
213,Hamburg,4338,40.5,53048,45.4,54.6,29958,132186," [(['White alone'], ['4,059']), (['Hispanic'], ['127']), (['Black alone'], ['47']), (['Two or more races'], ['29']), (['Asian alone'], ['19']), (['American Indian alone'], ['7']), (['Native Hawaiian and Other Pacific Islander alone</br>], ['1'])]",Berks-County,31.591554,53.940852,14.467594,19526,40.55,-75.98
214,Hereford,930,48.3,59286,56.3,43.7,29321,174800," [(['White alone'], ['853']), (['Hispanic'], ['42']), (['Two or more races'], ['23']), (['Asian alone'], ['6']), (['Black alone'], ['4']), (['American Indian alone'], ['1']), (['Other race alone'], ['1'])] ",Berks-County,31.591554,53.940852,14.467594,18056,40.44,-75.58
215,Kutztown,5013,35.2,53010,45.5,54.5,28092,160940," [(['White alone'], ['4,726']), (['Hispanic'], ['128']), (['Black alone'], ['65']), (['Asian alone'], ['50']), (['Two or more races'], ['40']), (['Other race alone'], ['3'])] ",Berks-County,31.591554,53.940852,14.467594,19530,40.52,-75.77
216,Leesport,1910,35.7,67916,50.5,49.5,29715,151528," [(['White alone'], ['1,779']), (['Hispanic'], ['80']), (['Black alone'], ['28']), (['Two or more races'], ['14']), (['Asian alone'], ['12']), (['American Indian alone'], ['5'])] ",Berks-County,31.591554,53.940852,14.467594,19533,40.44,-75.96
217,Mertztown,664,41.4,59286,61.4,38.6,29321,174800," [(['White alone'], ['636']), (['Hispanic'], ['15']), (['Two or more races'], ['8']), (['Asian alone'], ['4']), (['Black alone'], ['1'])] ",Berks-County,31.591554,53.940852,14.467594,19539,40.49,-75.68
218,Mohnton,3033,40.5,54726,43.8,56.2,34297,165388," [(['White alone'], ['2,795']), (['Hispanic'], ['149']), (['Black alone'], ['49']), (['Two or more races'], ['28']), (['Asian alone'], ['20']), (['American Indian alone'], ['2'])] ",Berks-County,31.591554,53.940852,14.467594,19540,40.28,-75.98
219,Mohrsville,383,29.2,59286,52.1,47.9,29321,174800," [(['White alone'], ['350']), (['Asian alone'], ['14']), (['Hispanic'], ['9']), (['Other race alone'], ['7']), (['Black alone'], ['1']), (['American Indian alone'], ['1']), (['Two or more races'], ['1'])] ",Berks-County,31.591554,53.940852,14.467594,19541,40.47,-76.02
220,Morgantown,826,30.9,59286,51.7,48.3,29321,174800," [(['White alone'], ['774']), (['Hispanic'], ['21']), (['Asian alone'], ['19']), (['Two or more races'], ['9']), (['Black alone'], ['2']), (['American Indian alone'], ['1'])] ",Berks-County,31.591554,53.940852,14.467594,19543,40.15,-75.9
221,Mount Aetna,354,31.8,59286,45.2,54.8,29321,174800," [(['White alone'], ['327']), (['Hispanic'], ['12']), (['Two or more races'], ['6']), (['Black alone'], ['4']), (['American Indian alone'], ['4']), (['Other race alone'], ['1'])] ",Berks-County,31.591554,53.940852,14.467594,19544,40.43,-76.25
222,New Berlinville,1368,53.4,59286,46.6,53.4,29321,174800," [(['White alone'], ['1,322']), (['Two or more races'], ['27']), (['Hispanic'], ['12']), (['Asian alone'], ['4']), (['Black alone'], ['2']), (['American Indian alone'], ['1'])] ",Berks-County,31.591554,53.940852,14.467594,19545,40.37,-75.67
223,Oley,1282,42.8,59286,48.6,51.4,29321,174800," [(['White alone'], ['1,227']), (['Hispanic'], ['38']), (['Asian alone'], ['8']), (['Two or more races'], ['5']), (['Black alone'], ['4'])] ",Berks-County,31.591554,53.940852,14.467594,19547,40.37,-75.76
224,Rehrersburg,319,34.1,59286,51.6,48.4,29321,174800," [(['White alone'], ['282']), (['Hispanic'], ['28']), (['Black alone'], ['5']), (['Two or more races'], ['4'])] ",Berks-County,31.591554,53.940852,14.467594,19550,40.43,-76.25
225,Allenport,530,46.6,56200,46.7,53.3,28499,96832," [(['White alone'], ['531']), (['Black alone'], ['3']), (['Two or more races'], ['2']), (['Hispanic'], ['1'])] ",Washington-County,37.475613,54.278622,8.245764999999999,15412,40.09,-79.85
226,Atlasburg,401,34.4,57998,69.2,30.8,32270,167100," [(['White alone'], ['397']), (['Two or more races'], ['2']), (['Hispanic'], ['2'])] ",Washington-County,37.475613,54.278622,8.245764999999999,15004,40.39,-80.44
227,Avella,804,40.3,57998,52.2,47.8,32270,167100," [(['White alone'], ['769']), (['Black alone'], ['15']), (['Two or more races'], ['9']), (['Hispanic'], ['8']), (['American Indian alone'], ['2']), (['Asian alone'], ['1'])] ",Washington-County,37.475613,54.278622,8.245764999999999,15312,40.28,-80.47
228,Beallsville,453,42.0,59854,47.1,52.9,30127,111936," [(['White alone'], ['454']), (['Asian alone'], ['3']), (['Two or more races'], ['3']), (['Hispanic'], ['3']), (['Black alone'], ['2']), (['American Indian alone'], ['1'])] ",Washington-County,37.475613,54.278622,8.245764999999999,15313,40.05,-80.03
229,Bentleyville,2531,42.0,40473,50.8,49.2,21617,113971," [(['White alone'], ['2,446']), (['Black alone'], ['68']), (['Two or more races'], ['40']), (['Hispanic'], ['19']), (['Asian alone'], ['6']), (['Other race alone'], ['2'])] ",Washington-County,37.475613,54.278622,8.245764999999999,15314,40.11,-80.0
230,Bulger,407,43.8,57998,43.5,56.5,32270,167100," [(['White alone'], ['387']), (['Two or more races'], ['12']), (['Asian alone'], ['3']), (['Hispanic'], ['3']), (['Black alone'], ['2'])] ",Washington-County,37.475613,54.278622,8.245764999999999,15019,40.42,-80.35
231,Burgettstown,1360,43.7,47127,49.3,50.7,23613,107544," [(['White alone'], ['1,317']), (['Black alone'], ['23']), (['Two or more races'], ['22']), (['Hispanic'], ['19']), (['Asian alone'], ['5']), (['American Indian alone'], ['1']), (['Other race alone'], ['1'])] ",Washington-County,37.475613,54.278622,8.245764999999999,15021,40.38,-80.39
232,California,6678,25.3,37117,47.1,52.9,24039,120826," [(['White alone'], ['6,121']), (['Black alone'], ['444']), (['Hispanic'], ['100']), (['Two or more races'], ['78']), (['Asian alone'], ['34']), (['American Indian alone'], ['13']), (['Other race alone'], ['5'])] ",Washington-County,37.475613,54.278622,8.245764999999999,15419,40.06,-79.91
233,Canonsburg,8924,40.8,50805,47.2,52.8,27807,139036," [(['White alone'], ['7,452']), (['Black alone'], ['701']), (['Hispanic'], ['349']), (['Two or more races'], ['341']), (['Asian alone'], ['57']), (['Other race alone'], ['10']), (['American Indian alone'], ['4'])] ",Washington-County,37.475613,54.278622,8.245764999999999,15317,40.26,-80.18
234,Centerville,3206,43.0,65793,43.8,56.2,29857,124361," [(['White alone'], ['3,121']), (['Two or more races'], ['55']), (['Black alone'], ['37']), (['Hispanic'], ['36']), (['American Indian alone'], ['5']), (['Asian alone'], ['8']), (['Native Hawaiian and Other Pacific Islander alone</br>], ['1'])]",Washington-County,37.475613,54.278622,8.245764999999999,16404,41.73,-79.76
235,Charleroi,4035,38.9,31394,48.6,51.4,18819,48523," [(['White alone'], ['3,656']), (['Black alone'], ['224']), (['Two or more races'], ['114']), (['Hispanic'], ['78']), (['Asian alone'], ['40']), (['American Indian alone'], ['5']), (['Other race alone'], ['3'])] ",Washington-County,37.475613,54.278622,8.245764999999999,15022,40.13,-79.9
236,Claysville,814,41.9,43618,39.7,60.3,21668,111293," [(['White alone'], ['800']), (['Two or more races'], ['14']), (['Hispanic'], ['5']), (['Black alone'], ['4']), (['American Indian alone'], ['3']), (['Asian alone'], ['3'])] ",Washington-County,37.475613,54.278622,8.245764999999999,15323,40.12,-80.41
237,Cokeburg,621,50.4,35970,48.5,51.5,27066,63841," [(['White alone'], ['610']), (['Two or more races'], ['9']), (['Black alone'], ['6']), (['Asian alone'], ['3']), (['Hispanic'], ['2'])] ",Washington-County,37.475613,54.278622,8.245764999999999,15324,40.09,-80.06
238,Donora,4684,39.8,36442,47.8,52.2,20622,61056," [(['White alone'], ['3,723']), (['Black alone'], ['702']), (['Two or more races'], ['166']), (['Hispanic'], ['150']), (['Asian alone'], ['18']), (['Other race alone'], ['15']), (['American Indian alone'], ['5']), (['Native Hawaiian and Other Pacific Islander alone</br>], ['2'])]",Washington-County,37.475613,54.278622,8.245764999999999,15033,40.17,-79.86
239,Dunlevy,382,47.3,39850,46.9,53.1,22694,86871," [(['White alone'], ['372']), (['Black alone'], ['5']), (['Two or more races'], ['4'])] ",Washington-County,37.475613,54.278622,8.245764999999999,15432,40.11,-79.85
240,Eighty Four,657,40.3,57998,57.0,43.0,32270,167100," [(['White alone'], ['650']), (['Black alone'], ['2']), (['Two or more races'], ['2']), (['Hispanic'], ['2']), (['Asian alone'], ['1'])] ",Washington-County,37.475613,54.278622,8.245764999999999,15330,40.18,-80.13
241,Elco,320,52.5,43158,50.5,49.5,21076,74981," [(['White alone'], ['317']), (['Two or more races'], ['3']), (['Black alone'], ['2']), (['Asian alone'], ['1'])] ",Washington-County,37.475613,54.278622,8.245764999999999,15434,40.08,-79.88
242,Ellsworth,1002,40.0,51144,42.2,57.8,22132,75195," [(['White alone'], ['977']), (['Black alone'], ['25']), (['Two or more races'], ['16']), (['Hispanic'], ['8']), (['American Indian alone'], ['1'])] ",Washington-County,37.475613,54.278622,8.245764999999999,15331,40.1,-80.02
243,Elrama,307,35.6,57998,46.5,53.5,32270,167100," [(['White alone'], ['305']), (['American Indian alone'], ['2'])] ",Washington-County,37.475613,54.278622,8.245764999999999,15038,40.24,-79.98
244,Finleyville,450,32.1,32448,48.9,51.1,26455,105830," [(['White alone'], ['422']), (['Black alone'], ['19']), (['Hispanic'], ['9']), (['Two or more races'], ['5']), (['Asian alone'], ['3']), (['Other race alone'], ['3'])] ",Washington-County,37.475613,54.278622,8.245764999999999,15332,40.25,-80.0
245,Fredericktown,403,34.0,57998,47.8,52.2,32270,167100," [(['White alone'], ['371']), (['Black alone'], ['20']), (['Two or more races'], ['6']), (['Hispanic'], ['5']), (['American Indian alone'], ['1'])] ",Washington-County,37.475613,54.278622,8.245764999999999,15333,40.02,-80.03
246,Gastonville,2818,53.0,55303,49.4,50.6,28464,127360," [(['White alone'], ['2,740']), (['Hispanic'], ['26']), (['Black alone'], ['18']), (['Two or more races'], ['18']), (['Asian alone'], ['11']), (['American Indian alone'], ['4']), (['Other race alone'], ['1'])] ",Washington-County,37.475613,54.278622,8.245764999999999,15336,40.26,-80.0
247,Hendersonville,325,49.6,57998,38.0,62.0,32270,167100," [(['White alone'], ['295']), (['Black alone'], ['21']), (['Two or more races'], ['9'])] ",Washington-County,37.475613,54.278622,8.245764999999999,15339,40.32,-80.21
248,Hickory,740,32.6,57998,50.7,49.3,32270,167100," [(['White alone'], ['729']), (['Two or more races'], ['9']), (['Asian alone'], ['1']), (['Hispanic'], ['1'])] ",Washington-County,37.475613,54.278622,8.245764999999999,15340,40.3,-80.32
249,Houston,1273,41.4,40438,52.6,47.4,24196,132823," [(['White alone'], ['1,188']), (['Black alone'], ['42']), (['Two or more races'], ['42']), (['Hispanic'], ['15']), (['Asian alone'], ['5']), (['American Indian alone'], ['3']), (['Other race alone'], ['1'])] ",Washington-County,37.475613,54.278622,8.245764999999999,15342,40.25,-80.21
250,Joffre,536,37.0,57998,45.6,54.4,32270,167100," [(['White alone'], ['515']), (['Two or more races'], ['13']), (['Asian alone'], ['5']), (['Hispanic'], ['2']), (['Black alone'], ['1'])] ",Washington-County,37.475613,54.278622,8.245764999999999,15053,40.38,-80.39
251,Langeloth,717,51.4,57998,46.6,53.4,32270,167100," [(['White alone'], ['673']), (['Hispanic'], ['32']), (['Two or more races'], ['6']), (['Black alone'], ['4']), (['Asian alone'], ['2'])] ",Washington-County,37.475613,54.278622,8.245764999999999,15054,40.39,-80.44
252,Lawrence,540,47.0,57998,43.9,56.1,32270,167100," [(['White alone'], ['484']), (['Black alone'], ['32']), (['Two or more races'], ['13']), (['Asian alone'], ['5']), (['American Indian alone'], ['3']), (['Hispanic'], ['2']), (['Native Hawaiian and Other >, 'Pacific Islander alone'], ['1'])]",Washington-County,37.475613,54.278622,8.245764999999999,15055,40.31,-80.14
253,Marianna,482,39.6,31222,45.5,54.5,19393,45845," [(['White alone'], ['452']), (['Black alone'], ['18']), (['Two or more races'], ['17']), (['American Indian alone'], ['5']), (['Hispanic'], ['2'])] ",Washington-County,37.475613,54.278622,8.245764999999999,15345,40.01,-80.11
254,Millsboro,666,33.7,57998,49.5,50.5,32270,167100," [(['White alone'], ['648']), (['Two or more races'], ['13']), (['Black alone'], ['4']), (['Hispanic'], ['1'])] ",Washington-County,37.475613,54.278622,8.245764999999999,15348,39.98,-80.03
255,Monongahela,4206,41.6,45599,47.9,52.1,23136,84193," [(['White alone'], ['4,034']), (['Black alone'], ['111']), (['Two or more races'], ['64']), (['Hispanic'], ['49']), (['Asian alone'], ['21']), (['American Indian alone'], ['11']), (['Other race alone'], ['10'])] ",Washington-County,37.475613,54.278622,8.245764999999999,15063,40.19,-79.92
256,Muse,2504,37.3,57998,48.2,51.8,32270,167100," [(['White alone'], ['2,402']), (['Black alone'], ['35']), (['Asian alone'], ['24']), (['Two or more races'], ['22']), (['Hispanic'], ['16']), (['American Indian alone'], ['4']), (['Other race alone'], ['1'])] ",Washington-County,37.475613,54.278622,8.245764999999999,15350,40.32,-80.21
257,New Eagle,2137,47.4,39963,50.4,49.6,25049,91477," [(['White alone'], ['2,120']), (['Black alone'], ['18']), (['Two or more races'], ['17']), (['Asian alone'], ['14']), (['Hispanic'], ['11']), (['American Indian alone'], ['2']), (['Other race alone'], ['2'])] ",Washington-County,37.475613,54.278622,8.245764999999999,15067,40.2,-79.95
258,Roscoe,797,52.4,50403,45.4,54.6,25331,83871," [(['White alone'], ['780']), (['Two or more races'], ['15']), (['Black alone'], ['8']), (['Hispanic'], ['5']), (['American Indian alone'], ['2']), (['Other race alone'], ['2'])] ",Washington-County,37.475613,54.278622,8.245764999999999,15477,40.07,-79.86
259,Slovan,555,48.4,57998,47.2,52.8,32270,167100," [(['White alone'], ['535']), (['Two or more races'], ['9']), (['Hispanic'], ['7']), (['Black alone'], ['3']), (['Asian alone'], ['1'])] ",Washington-County,37.475613,54.278622,8.245764999999999,15078,40.36,-80.4
260,Southview,276,47.5,57998,74.0,26.0,32270,167100," [(['White alone'], ['274']), (['Black alone'], ['2'])] ",Washington-County,37.475613,54.278622,8.245764999999999,15361,40.32,-80.21
261,Stockdale,508,57.3,44607,53.3,46.7,29552,97368," [(['White alone'], ['492']), (['Two or more races'], ['6']), (['Hispanic'], ['4'])] ",Washington-County,37.475613,54.278622,8.245764999999999,15483,40.08,-79.85
262,Taylorstown,217,43.1,57998,50.7,49.3,32270,167100," [(['White alone'], ['210']), (['Two or more races'], ['4']), (['Asian alone'], ['2']), (['Hispanic'], ['1'])] ",Washington-County,37.475613,54.278622,8.245764999999999,15365,40.17,-80.38
263,Washington,13551,38.5,36806,50.1,49.9,21174,101760," [(['White alone'], ['10,522']), (['Black alone'], ['2,145']), (['Two or more races'], ['584']), (['Hispanic'], ['249']), (['Asian alone'], ['96']), (['Other race alone'], ['35']), (['American Indian alone'], ['24']), (['Native Hawaiian and Other Pacific Islander alone</br>], ['8'])]",Washington-County,37.475613,54.278622,8.245764999999999,15301,40.17,-80.24
264,West Alexander,604,46.3,30357,49.6,50.4,21576,132716," [(['White alone'], ['596']), (['Hispanic'], ['4']), (['Black alone'], ['2']), (['Two or more races'], ['2'])] ",Washington-County,37.475613,54.278622,8.245764999999999,15376,40.1,-80.5
265,Allensville,503,32.7,43559,55.6,44.4,22481,103505," [(['White alone'], ['496']), (['Black alone'], ['4']), (['Two or more races'], ['3'])] ",Mifflin-County,18.579385,64.472396,16.948219,17002,40.53,-77.81
266,Belleville,1827,56.6,39699,47.1,52.9,25330,108696," [(['White alone'], ['1,786']), (['Hispanic'], ['30']), (['Two or more races'], ['8']), (['American Indian alone'], ['2']), (['Black alone'], ['1'])] ",Mifflin-County,18.579385,64.472396,16.948219,17004,40.6,-77.72
267,Burnham,2027,42.4,46899,49.2,50.8,22981,88036," [(['White alone'], ['1,998']), (['Hispanic'], ['31']), (['Two or more races'], ['13']), (['Black alone'], ['8']), (['Asian alone'], ['4'])] ",Mifflin-County,18.579385,64.472396,16.948219,17009,40.63,-77.56
268,Granville,440,39.4,43559,43.2,56.8,22481,103505," [(['White alone'], ['427']), (['Black alone'], ['7']), (['Two or more races'], ['5']), (['Native Hawaiian and Other >, 'Pacific Islander alone'], ['1'])]",Mifflin-County,18.579385,64.472396,16.948219,17029,40.54,-77.6
269,Lewistown,8297,36.0,32129,49.6,50.4,18147,72671," [(['White alone'], ['7,779']), (['Hispanic'], ['256']), (['Two or more races'], ['134']), (['Black alone'], ['116']), (['American Indian alone'], ['21']), (['Asian alone'], ['27']), (['Other race alone'], ['4']), (['Native Hawaiian and Other Pacific Islander alone</br>], ['1'])]",Mifflin-County,18.579385,64.472396,16.948219,17044,40.59,-77.57
270,Mattawana,276,34.9,43559,53.6,46.4,22481,103505," [(['White alone'], ['271']), (['Two or more races'], ['4']), (['Black alone'], ['1'])] ",Mifflin-County,18.579385,64.472396,16.948219,17054,40.49,-77.72
271,Milroy,1498,43.9,51433,43.0,57.0,22633,90839," [(['White alone'], ['1,462']), (['Two or more races'], ['18']), (['Asian alone'], ['7']), (['Hispanic'], ['7']), (['Black alone'], ['2']), (['American Indian alone'], ['2'])] ",Mifflin-County,18.579385,64.472396,16.948219,17063,40.71,-77.58
272,Newton Hamilton,205,42.9,28940,51.4,48.6,15093,49728," [(['White alone'], ['198']), (['Hispanic'], ['5']), (['Black alone'], ['2'])] ",Mifflin-County,18.579385,64.472396,16.948219,17075,40.39,-77.83
273,Reedsville,641,36.8,36913,54.0,46.0,16587,82223," [(['White alone'], ['634']), (['Black alone'], ['3']), (['Two or more races'], ['2']), (['American Indian alone'], ['1']), (['Asian alone'], ['1'])] ",Mifflin-County,18.579385,64.472396,16.948219,17084,40.65,-77.6
274,Yeagertown,1050,47.3,42929,53.3,46.7,21437,73710," [(['White alone'], ['1,024']), (['Hispanic'], ['10']), (['Black alone'], ['7']), (['Asian alone'], ['4']), (['Two or more races'], ['4']), (['Other race alone'], ['1'])] ",Mifflin-County,18.579385,64.472396,16.948219,17099,40.64,-77.58
275,Allenwood,321,37.7,53231,43.1,56.9,24194,171193," [(['White alone'], ['302']), (['Black alone'], ['14']), (['Hispanic'], ['4']), (['Asian alone'], ['1'])] ",Union-County,29.292732,55.875464,14.831804,17810,41.09,-76.9
276,Hartleton,285,40.7,65654,46.0,54.0,25405,109942," [(['White alone'], ['279']), (['Two or more races'], ['4'])] ",Union-County,29.292732,55.875464,14.831804,17829,40.89,-77.15
277,Laurelton,221,35.4,53231,51.6,48.4,24194,171193," [(['White alone'], ['219']), (['Asian alone'], ['2'])] ",Union-County,29.292732,55.875464,14.831804,17835,40.94,-77.2
278,Lewisburg,5775,24.3,44798,42.6,57.4,21234,167767," [(['White alone'], ['4,640']), (['Hispanic'], ['561']), (['Asian alone'], ['227']), (['Black alone'], ['199']), (['Two or more races'], ['131']), (['Other race alone'], ['7']), (['American Indian alone'], ['1'])] ",Union-County,29.292732,55.875464,14.831804,17837,40.96,-76.89
279,Mifflinburg,3531,44.0,46918,47.0,53.0,24294,143578," [(['White alone'], ['3,453']), (['Hispanic'], ['31']), (['Black alone'], ['22']), (['Two or more races'], ['19']), (['Asian alone'], ['9']), (['Native Hawaiian and Other Pacific Islander alone</br>], ['3']), (['Other race alone'], ['2']), (['American Indian alone'], ['1'])]",Union-County,29.292732,55.875464,14.831804,17844,40.92,-77.04
280,New Berlin,868,39.9,57310,49.5,50.5,24653,140152," [(['White alone'], ['864']), (['Two or more races'], ['3']), (['Asian alone'], ['2']), (['Hispanic'], ['2']), (['Black alone'], ['1']), (['American Indian alone'], ['1'])] ",Union-County,29.292732,55.875464,14.831804,17855,40.88,-76.98
281,New Columbia,1013,47.5,53231,56.7,43.3,24194,171193," [(['White alone'], ['971']), (['Hispanic'], ['18']), (['Two or more races'], ['13']), (['Black alone'], ['7']), (['Native Hawaiian and Other Pacific Islander alone</br>], ['2']), (['American Indian alone'], ['1']), (['Asian alone'], ['1'])]",Union-County,29.292732,55.875464,14.831804,17856,41.04,-76.88
282,Vicksburg,261,29.5,53231,61.5,38.5,24194,171193," [(['White alone'], ['260']), (['Black alone'], ['1'])] ",Union-County,29.292732,55.875464,14.831804,17883,40.94,-76.98
283,West Milton,900,38.0,53231,62.5,37.5,24194,171193," [(['White alone'], ['807']), (['Black alone'], ['43']), (['Hispanic'], ['31']), (['Two or more races'], ['18']), (['Asian alone'], ['1'])] ",Union-County,29.292732,55.875464,14.831804,17886,41.01,-76.8
284,Winfield,900,51.1,53231,44.9,55.1,24194,171193," [(['White alone'], ['872']), (['Hispanic'], ['9']), (['Two or more races'], ['8']), (['Asian alone'], ['7']), (['Black alone'], ['3']), (['American Indian alone'], ['1'])] ",Union-County,29.292732,55.875464,14.831804,17889,40.9,-76.87
285,Allison Park,21552,45.1,56140,48.8,51.2,34440,147100," [(['White alone'], ['19,330']), (['Asian alone'], ['1,021']), (['Black alone'], ['448']), (['Hispanic'], ['352']), (['Two or more races'], ['242']), (['American Indian alone'], ['3'])] ",Allegheny-County,48.55362,45.314107,6.1322730000000005,15101,40.57,-79.95
286,Bairdford,698,45.9,56140,42.2,57.8,34440,147100," [(['White alone'], ['684']), (['Hispanic'], ['8']), (['Black alone'], ['3']), (['Two or more races'], ['3'])] ",Allegheny-County,48.55362,45.314107,6.1322730000000005,15006,40.54,-79.83
287,Bakerstown,1761,44.2,56140,53.9,46.1,34440,147100," [(['White alone'], ['1,688']), (['Hispanic'], ['31']), (['Asian alone'], ['17']), (['Black alone'], ['11']), (['Two or more races'], ['8']), (['American Indian alone'], ['6'])] ",Allegheny-County,48.55362,45.314107,6.1322730000000005,15007,40.64,-79.93
288,Bethel Park,32257,45.9,74447,47.9,52.1,37687,182452," [(['White alone'], ['29,998']), (['Two or more races'], ['653']), (['Asian alone'], ['529']), (['Black alone'], ['386']), (['Hispanic'], ['341']), (['American Indian alone'], ['49']), (['Native Hawaiian and Other Pacific Islander alone</br>], ['31']), (['Other race alone'], ['45'])]",Allegheny-County,48.55362,45.314107,6.1322730000000005,15102,40.32,-80.03
289,Brackenridge,3229,38.3,42090,49.0,51.0,30829,79898," [(['White alone'], ['3,025']), (['Black alone'], ['141']), (['Two or more races'], ['50']), (['Hispanic'], ['22']), (['Asian alone'], ['10']), (['Other race alone'], ['9']), (['American Indian alone'], ['2']), (['Native Hawaiian and Other Pacific Islander alone</br>], ['1'])]",Allegheny-County,48.55362,45.314107,6.1322730000000005,15014,40.6,-79.74
290,Braddock,2140,46.2,25356,46.8,53.2,13311,32069," [(['Black alone'], ['1,555']), (['White alone'], ['489']), (['Two or more races'], ['49']), (['Hispanic'], ['40']), (['American Indian alone'], ['14']), (['Native Hawaiian and Other >, 'Pacific Islander alone'], ['4']), (['Other race alone'], ['5']), (['Asian alone'], ['3'])]",Allegheny-County,48.55362,45.314107,6.1322730000000005,15104,40.4,-79.86
291,Bradfordwoods,1174,46.4,107153,54.4,45.6,57655,315543," [(['White alone'], ['1,137']), (['Asian alone'], ['11']), (['Two or more races'], ['8']), (['Black alone'], ['6']), (['Hispanic'], ['6']), (['Native Hawaiian and Other Pacific Islander alone</br>], ['2']), (['Other race alone'], ['1'])]",Allegheny-County,48.55362,45.314107,6.1322730000000005,15015,40.63,-80.08
292,Bridgeville,5116,45.5,47353,47.2,52.8,30971,134842," [(['White alone'], ['4,780']), (['Two or more races'], ['116']), (['Black alone'], ['65']), (['Asian alone'], ['63']), (['Hispanic'], ['52']), (['American Indian alone'], ['9'])] ",Allegheny-County,48.55362,45.314107,6.1322730000000005,15017,40.35,-80.1
293,Carnegie,7912,35.6,46589,49.7,50.3,31268,108027," [(['White alone'], ['6,402']), (['Black alone'], ['980']), (['Two or more races'], ['380']), (['Hispanic'], ['81']), (['Asian alone'], ['68']), (['Other race alone'], ['16']), (['American Indian alone'], ['2'])] ",Allegheny-County,48.55362,45.314107,6.1322730000000005,15106,40.4,-80.08
294,Cheswick,1735,49.6,57136,49.3,50.7,33781,120723," [(['White alone'], ['1,717']), (['Hispanic'], ['10']), (['Asian alone'], ['7']), (['Two or more races'], ['7']), (['Black alone'], ['3']), (['American Indian alone'], ['1']), (['Other race alone'], ['1'])] ",Allegheny-County,48.55362,45.314107,6.1322730000000005,15024,40.54,-79.8
295,Clairton,6720,40.1,31514,47.9,52.1,19916,51441," [(['White alone'], ['3,924']), (['Black alone'], ['2,533']), (['Two or more races'], ['188']), (['Hispanic'], ['108']), (['Asian alone'], ['19']), (['Other race alone'], ['18']), (['American Indian alone'], ['6'])] ",Allegheny-County,48.55362,45.314107,6.1322730000000005,15025,40.29,-79.88
296,Clinton,434,45.8,56140,52.6,47.4,34440,147100," [(['White alone'], ['428']), (['Hispanic'], ['3']), (['Black alone'], ['2']), (['American Indian alone'], ['1'])] ",Allegheny-County,48.55362,45.314107,6.1322730000000005,15026,40.51,-80.34
297,Coraopolis,5624,41.5,41092,48.9,51.1,24207,99818," [(['White alone'], ['4,670']), (['Black alone'], ['671']), (['Two or more races'], ['173']), (['Hispanic'], ['104']), (['Asian alone'], ['20']), (['Other race alone'], ['22']), (['American Indian alone'], ['10']), (['Native Hawaiian and Other Pacific Islander alone</br>], ['7'])]",Allegheny-County,48.55362,45.314107,6.1322730000000005,15108,40.51,-80.16
298,Curtisville,1064,39.5,38915,50.5,49.5,27256,88435," [(['White alone'], ['1,036']), (['Two or more races'], ['9']), (['Hispanic'], ['7']), (['American Indian alone'], ['6']), (['Black alone'], ['4']), (['Asian alone'], ['2'])] ",Allegheny-County,48.55362,45.314107,6.1322730000000005,15032,40.64,-79.84
299,Dravosburg,1774,50.7,42669,46.6,53.4,28107,65451," [(['White alone'], ['1,676']), (['Black alone'], ['51']), (['Two or more races'], ['28']), (['Hispanic'], ['19']), (['American Indian alone'], ['13']), (['Asian alone'], ['5'])] ",Allegheny-County,48.55362,45.314107,6.1322730000000005,15034,40.35,-79.88
300,Duquesne,5521,32.8,22200,47.3,52.7,19817,39402," [(['Black alone'], ['3,088']), (['White alone'], ['1,588']), (['Two or more races'], ['744']), (['Hispanic'], ['82']), (['Other race alone'], ['76']), (['Asian alone'], ['5']), (['American Indian alone'], ['1'])] ",Allegheny-County,48.55362,45.314107,6.1322730000000005,15110,40.37,-79.85
301,East Pittsburgh,1804,31.7,26540,46.0,54.0,15459,47282," [(['White alone'], ['876']), (['Black alone'], ['811']), (['Two or more races'], ['76']), (['Hispanic'], ['46']), (['Other race alone'], ['8']), (['Asian alone'], ['4']), (['American Indian alone'], ['1'])] ",Allegheny-County,48.55362,45.314107,6.1322730000000005,15112,40.39,-79.83
302,Elizabeth,1497,44.6,38228,46.3,53.7,24078,89092," [(['White alone'], ['1,359']), (['Black alone'], ['72']), (['Two or more races'], ['38']), (['Hispanic'], ['19']), (['Asian alone'], ['3']), (['American Indian alone'], ['2'])] ",Allegheny-County,48.55362,45.314107,6.1322730000000005,15037,40.27,-79.88
303,Gibsonia,2733,39.3,56140,46.2,53.8,34440,147100," [(['White alone'], ['2,628']), (['Hispanic'], ['35']), (['Asian alone'], ['24']), (['Two or more races'], ['23']), (['Black alone'], ['18']), (['American Indian alone'], ['5'])] ",Allegheny-County,48.55362,45.314107,6.1322730000000005,15044,40.63,-79.94
304,Glassport,4444,41.2,39228,48.5,51.5,21044,60526," [(['White alone'], ['4,268']), (['Black alone'], ['75']), (['Hispanic'], ['57']), (['Two or more races'], ['56']), (['American Indian alone'], ['10']), (['Asian alone'], ['11']), (['Other race alone'], ['4']), (['Native Hawaiian and Other Pacific Islander alone</br>], ['2'])]",Allegheny-County,48.55362,45.314107,6.1322730000000005,15045,40.32,-79.88
305,Glenshaw,8981,45.8,56140,49.2,50.8,34440,147100," [(['White alone'], ['8,730']), (['Black alone'], ['59']), (['Asian alone'], ['62']), (['Two or more races'], ['61']), (['Hispanic'], ['60']), (['Other race alone'], ['4']), (['American Indian alone'], ['3']), (['Native Hawaiian and Other >, 'Pacific Islander alone'], ['2'])]",Allegheny-County,48.55362,45.314107,6.1322730000000005,15116,40.52,-79.95
306,Greenock,2195,42.7,56140,45.1,54.9,34440,147100," [(['White alone'], ['2,144']), (['Two or more races'], ['20']), (['Hispanic'], ['11']), (['Asian alone'], ['9']), (['Black alone'], ['7']), (['Other race alone'], ['4'])] ",Allegheny-County,48.55362,45.314107,6.1322730000000005,15047,40.24,-79.83
307,Harwick,899,51.6,56140,44.7,55.3,34440,147100," [(['White alone'], ['889']), (['Hispanic'], ['7']), (['Black alone'], ['2']), (['Asian alone'], ['1'])] ",Allegheny-County,48.55362,45.314107,6.1322730000000005,15049,40.56,-79.8
308,Homestead,3133,39.2,25513,45.9,54.1,17610,49690," [(['Black alone'], ['1,849']), (['White alone'], ['1,015']), (['Two or more races'], ['124']), (['Asian alone'], ['96']), (['Hispanic'], ['58']), (['Other race alone'], ['17']), (['American Indian alone'], ['6'])] ",Allegheny-County,48.55362,45.314107,6.1322730000000005,15120,40.4,-79.9
309,Imperial,2541,41.0,56140,50.4,49.6,34440,147100," [(['White alone'], ['2,409']), (['Black alone'], ['53']), (['Two or more races'], ['31']), (['Hispanic'], ['23']), (['Asian alone'], ['20']), (['Other race alone'], ['3']), (['American Indian alone'], ['2'])] ",Allegheny-County,48.55362,45.314107,6.1322730000000005,15126,40.45,-80.25
310,Leetsdale,1206,42.0,47911,47.9,52.1,27644,83182," [(['White alone'], ['1,036']), (['Black alone'], ['90']), (['Two or more races'], ['40']), (['Hispanic'], ['28']), (['Asian alone'], ['18']), (['Other race alone'], ['6'])] ",Allegheny-County,48.55362,45.314107,6.1322730000000005,15056,40.56,-80.21
311,Liberty,2532,45.7,53594,47.6,52.4,26253,81868," [(['White alone'], ['2,476']), (['Black alone'], ['36']), (['Two or more races'], ['17']), (['Hispanic'], ['11']), (['Asian alone'], ['6']), (['American Indian alone'], ['3']), (['Other race alone'], ['2'])] ",Allegheny-County,48.55362,45.314107,6.1322730000000005,16930,41.55,-77.1
312,Monroeville,28285,44.2,56140,48.5,51.5,34440,147100," [(['White alone'], ['21,163']), (['Black alone'], ['3,669']), (['Asian alone'], ['1,597']), (['Two or more races'], ['1,081']), (['Hispanic'], ['653']), (['Other race alone'], ['60']), (['American Indian alone'], ['5'])] ",Allegheny-County,48.55362,45.314107,6.1322730000000005,15146,40.42,-79.76
313,North Versailles,10603,42.3,44844,47.2,52.8,26018,110633," [(['White alone'], ['9,747']), (['Black alone'], ['1,079']), (['Two or more races'], ['141']), (['Asian alone'], ['80']), (['Hispanic'], ['54']), (['Other race alone'], ['15']), (['American Indian alone'], ['7']), (['Native Hawaiian and Other >, 'Pacific Islander alone'], ['2'])]",Allegheny-County,48.55362,45.314107,6.1322730000000005,15137,40.37,-79.8
314,Oakdale,1477,46.9,60541,50.9,49.1,31851,130683," [(['White alone'], ['1,403']), (['Black alone'], ['23']), (['Two or more races'], ['16']), (['Hispanic'], ['10']), (['Asian alone'], ['5']), (['American Indian alone'], ['1']), (['Other race alone'], ['1'])] ",Allegheny-County,48.55362,45.314107,6.1322730000000005,15071,40.39,-80.18
315,Oakmont,6426,47.7,63541,44.5,55.5,41025,191536," [(['White alone'], ['6,058']), (['Hispanic'], ['93']), (['Black alone'], ['58']), (['Asian alone'], ['45']), (['Two or more races'], ['41']), (['American Indian alone'], ['4']), (['Other race alone'], ['4'])] ",Allegheny-County,48.55362,45.314107,6.1322730000000005,15139,40.51,-79.83
316,Pitcairn,3264,37.4,31916,45.7,54.3,21033,64903," [(['White alone'], ['2,822']), (['Black alone'], ['308']), (['Two or more races'], ['85']), (['Hispanic'], ['65']), (['Asian alone'], ['9']), (['American Indian alone'], ['3']), (['Other race alone'], ['2'])] ",Allegheny-County,48.55362,45.314107,6.1322730000000005,15140,40.4,-79.77
317,Pittsburgh,303624,33.5,44707,49.2,50.8,30244,120800," [(['White alone'], ['198,820']), (['Black alone'], ['68,184']), (['Asian alone'], ['16,963']), (['Two or more races'], ['10,168']), (['Hispanic'], ['8,450']), (['Other race alone'], ['809']), (['American Indian alone'], ['148']), (['Native Hawaiian and Other >, 'Pacific Islander alone'], ['82'])]",Allegheny-County,48.55362,45.314107,6.1322730000000005,15201,40.43,-79.97
318,Russellton,1440,48.4,56266,52.5,47.5,29098,128822," [(['White alone'], ['1,404']), (['Black alone'], ['13']), (['Hispanic'], ['10']), (['Asian alone'], ['6']), (['Two or more races'], ['5']), (['American Indian alone'], ['2'])] ",Allegheny-County,48.55362,45.314107,6.1322730000000005,15076,40.61,-79.83
319,Sewickley,3851,42.4,71909,48.0,52.0,54174,318607," [(['White alone'], ['3,353']), (['Black alone'], ['273']), (['Hispanic'], ['70']), (['Two or more races'], ['65']), (['Asian alone'], ['51']), (['Other race alone'], ['11']), (['American Indian alone'], ['2']), (['Native Hawaiian and Other Pacific Islander alone</br>], ['2'])]",Allegheny-County,48.55362,45.314107,6.1322730000000005,15143,40.53,-80.18
320,Springdale,3393,47.3,45237,43.3,56.7,29835,99818," [(['White alone'], ['3,330']), (['Two or more races'], ['27']), (['Black alone'], ['19']), (['Hispanic'], ['19']), (['Asian alone'], ['4']), (['Other race alone'], ['5']), (['American Indian alone'], ['1'])] ",Allegheny-County,48.55362,45.314107,6.1322730000000005,15144,40.53,-79.78
321,Sturgeon,1710,42.4,56140,50.8,49.2,34440,147100," [(['White alone'], ['1,650']), (['Two or more races'], ['24']), (['Black alone'], ['19']), (['Hispanic'], ['6']), (['Asian alone'], ['5']), (['American Indian alone'], ['3']), (['Other race alone'], ['3'])] ",Allegheny-County,48.55362,45.314107,6.1322730000000005,15082,40.41,-80.19
